id,ident,type,name,latitude_deg,longitude_deg,elevation_ft,continent,country_name,iso_country,region_name,iso_region,local_region,municipality,scheduled_service,gps_code,icao_code,iata_code,local_code,home_link,wikipedia_link,keywords,score,last_updated
6104,SKBO,large_airport,"El Dorado International Airport",4.70159,-74.1469,8361,SA,Colombia,CO,"Bogotá Capital District",CO-DC,DC,Bogota,1,SKBO,SKBO,BOG,BOG,https://eldorado.aero/,https://en.wikipedia.org/wiki/El_Dorado_International_Airport,Cundinamarca,51275,2024-04-22T14:10:17+00:00
6109,SKCG,medium_airport,"Rafael Nuñez International Airport",10.4424,-75.513,4,SA,Colombia,CO,"Bolívar Department",CO-BOL,BOL,Cartagena,1,SKCG,SKCG,CTG,CTG,,https://en.wikipedia.org/wiki/Rafael_N%C3%BA%C3%B1ez_International_Airport,,750,2009-10-20T10:46:09+00:00
6158,SKRG,medium_airport,"Jose Maria Córdova International Airport",6.16454,-75.4231,6955,SA,Colombia,CO,"Antioquía Department",CO-ANT,ANT,Medellín,1,SKRG,SKRG,MDE,MDE,,https://en.wikipedia.org/wiki/Jos%C3%A9_Mar%C3%ADa_C%C3%B3rdova_International_Airport,,750,2017-08-14T21:49:57+00:00
6110,SKCL,medium_airport,"Alfonso Bonilla Aragon International Airport",3.54322,-76.3816,3162,SA,Colombia,CO,"Valle del Cauca Department",CO-VAC,VAC,Cali,1,SKCL,SKCL,CLO,CLO,https://www.aerocali.com.co/,https://en.wikipedia.org/wiki/Alfonso_Bonilla_Arag%C3%B3n_International_Airport,"Palmaseca International, 02-20",750,2019-08-15T00:05:28+00:00
6105,SKBQ,medium_airport,"Ernesto Cortissoz International Airport",10.8896,-74.7808,98,SA,Colombia,CO,"Atlántico Department",CO-ATL,ATL,Barranquilla,1,SKBQ,SKBQ,BAQ,BAQ,,https://en.wikipedia.org/wiki/Ernesto_Cortissoz_International_Airport,,750,2009-10-20T10:46:07+00:00
6163,SKSP,medium_airport,"Gustavo Rojas Pinilla International Airport",12.5836,-81.7112,19,NA,Colombia,CO,"San Andrés, Providencia y Santa Catalina Department",CO-SAP,SAP,"San Andrés",1,SKSP,SKSP,ADZ,ADZ,,https://en.wikipedia.org/wiki/Gustavo_Rojas_Pinilla_International_Airport,,750,2023-07-28T19:24:02+00:00
6161,SKSM,medium_airport,"Simón Bolívar International Airport",11.1196,-74.2306,22,SA,Colombia,CO,"Magdalena Department",CO-MAG,MAG,"Santa Marta",1,SKSM,SKSM,SMR,SMR,,https://en.wikipedia.org/wiki/Sim%C3%B3n_Bol%C3%ADvar_International_Airport_(Colombia),,750,2015-05-08T23:40:04+00:00
6132,SKMD,medium_airport,"Enrique Olaya Herrera Airport",6.219686,-75.590597,4949,SA,Colombia,CO,"Antioquía Department",CO-ANT,ANT,Medellín,1,SKMD,SKMD,EOH,EOH,,https://en.wikipedia.org/wiki/Enrique_Olaya_Herrera_International_Airport,,750,2025-01-10T11:41:43+00:00
6148,SKPE,medium_airport,"Matecaña International Airport",4.81267,-75.7395,4416,SA,Colombia,CO,"Risaralda Department",CO-RIS,RIS,Pereira,1,SKPE,SKPE,PEI,PEI,http://aeromate.gov.co,https://en.wikipedia.org/wiki/Mateca%C3%B1a_International_Airport,,750,2019-09-26T06:33:21+00:00
6155,SKPV,medium_airport,"El Embrujo Airport",13.357461,-81.357977,10,NA,Colombia,CO,"San Andrés, Providencia y Santa Catalina Department",CO-SAP,SAP,Providencia,1,SKPV,SKPV,PVA,PVA,,https://en.wikipedia.org/wiki/El_Embrujo_Airport,,750,2023-07-28T19:20:52+00:00
6108,SKCC,medium_airport,"Camilo Daza International Airport",7.92757,-72.5115,1096,SA,Colombia,CO,"Norte de Santander Department",CO-NSA,NSA,Cúcuta,1,SKCC,SKCC,CUC,CUC,,https://en.wikipedia.org/wiki/Camilo_Daza_International_Airport,,750,2009-10-20T10:46:08+00:00
6140,SKMZ,medium_airport,"La Nubia Airport",5.0296,-75.4647,6871,SA,Colombia,CO,"Caldas Department",CO-CAL,CAL,Manizales,1,SKMZ,SKMZ,MZL,MZL,,https://en.wikipedia.org/wiki/La_Nubia_Airport,,750,2009-10-20T10:46:19+00:00
6099,SKAR,medium_airport,"El Eden Airport",4.45278,-75.7664,3990,SA,Colombia,CO,"Quindio Department",CO-QUI,QUI,Armenia,1,SKAR,SKAR,AXM,AXM,,https://en.wikipedia.org/wiki/El_Ed%C3%A9n_Airport,,750,2019-09-26T06:31:17+00:00
6102,SKBG,medium_airport,"Palonegro Airport",7.1265,-73.1848,3897,SA,Colombia,CO,"Santander Department",CO-SAN,SAN,Bucaramanga,1,SKBG,SKBG,BGA,BGA,,https://en.wikipedia.org/wiki/Palonegro_International_Airport,,750,2025-02-24T22:18:52+00:00
6130,SKLT,medium_airport,"Alfredo Vásquez Cobo International Airport",-4.19355,-69.9432,277,SA,Colombia,CO,"Amazonas Department",CO-AMA,AMA,Leticia,1,SKLT,SKLT,LET,LET,,https://en.wikipedia.org/wiki/V%C3%A1squez_Cobo_International_Airport,,750,2009-10-20T10:46:17+00:00
6159,SKRH,medium_airport,"Almirante Padilla Airport",11.5262,-72.926,43,SA,Colombia,CO,"La Guajira Department",CO-LAG,LAG,Riohacha,1,SKRH,SKRH,RCH,RCH,,https://en.wikipedia.org/wiki/Riohacha_Airport,,750,2009-10-20T10:46:19+00:00
6177,SKVV,medium_airport,"Vanguardia Airport",4.16787,-73.6138,1394,SA,Colombia,CO,"Meta Department",CO-MET,MET,Villavicencio,1,SKVV,SKVV,VVC,VVC,,https://en.wikipedia.org/wiki/La_Vanguardia_Airport,,750,2009-10-20T10:46:27+00:00
6154,SKPS,medium_airport,"Antonio Nariño Airport",1.39625,-77.2915,5951,SA,Colombia,CO,"Nariño Department",CO-NAR,NAR,Chachagüí,1,SKPS,SKPS,PSO,PSO,,https://en.wikipedia.org/wiki/Antonio_Nari%C3%B1o_Airport,Pasto,750,2024-04-22T14:00:13+00:00
6124,SKIB,medium_airport,"Perales Airport",4.42161,-75.1333,2999,SA,Colombia,CO,"Tolima Department",CO-TOL,TOL,Ibagué,1,SKIB,SKIB,IBE,IBE,,https://en.wikipedia.org/wiki/Perales_Airport,,750,2015-05-09T00:02:45+00:00
6139,SKMU,medium_airport,"Fabio Alberto Leon Bentley Airport",1.25366,-70.2339,680,SA,Colombia,CO,"Vaupés Department",CO-VAU,VAU,Mitú,1,SKMU,SKMU,MVP,MVP,,https://en.wikipedia.org/wiki/Fabio_Alberto_Le%C3%B3n_Bentley_Airport,,750,2015-05-09T00:18:09+00:00
6138,SKMR,medium_airport,"Los Garzones Airport",8.82374,-75.8258,41,SA,Colombia,CO,"Córdoba Department",CO-COR,COR,Montería,1,SKMR,SKMR,MTR,MTR,,https://en.wikipedia.org/wiki/Los_Garzones_Airport,,750,2022-04-09T16:29:04+00:00
6118,SKFL,medium_airport,"Gustavo Artunduaga Paredes Airport",1.58919,-75.5644,803,SA,Colombia,CO,"Caquetá Department",CO-CAQ,CAQ,Florencia,1,SKFL,SKFL,FLA,FLA,,https://en.wikipedia.org/wiki/Gustavo_Artunduaga_Paredes_Airport,,500,2015-05-08T23:57:24+00:00
40906,SK-429,small_airport,"Leticia Airport",4.463611,-75.033611,2197,SA,Colombia,CO,"Tolima Department",CO-TOL,TOL,Alvarado,0,,,,LCT,,,,50,2009-10-20T10:45:58+00:00
6123,SKGY,small_airport,"Guaymaral Airport",4.81233,-74.0649,8390,NA,Colombia,CO,"Bogotá Capital District",CO-DC,DC,Chía,0,SKGY,,,GYM,,https://en.wikipedia.org/wiki/Guaymaral_Airport,,50,2024-05-06T16:07:40+00:00
40593,SK-489,small_airport,"San Antonio Airport",0.679722,-70.4375,649,SA,Colombia,CO,"Vaupés Department",CO-VAU,VAU,Mitu,0,,,,MSA,,,,50,2009-10-20T10:46:03+00:00
40797,SK-350,small_airport,"Tapa Chicamocha Airport",4.416667,-73.4975,5658,SA,Colombia,CO,"Meta Department",CO-MET,MET,Villavicencio,0,,,,VVL,,,,50,2009-10-20T10:45:53+00:00
6117,SKEJ,medium_airport,"Yariguíes Airport",7.02433,-73.8068,412,SA,Colombia,CO,"Santander Department",CO-SAN,SAN,Barrancabermeja,1,SKEJ,SKEJ,EJA,EJA,,https://en.wikipedia.org/wiki/Yarigu%C3%ADes_Airport,,750,2015-05-08T23:46:39+00:00
6115,SKCZ,medium_airport,"Las Brujas Airport",9.33274,-75.2856,528,SA,Colombia,CO,"Sucre Department",CO-SUC,SUC,Corozal,1,SKCZ,SKCZ,CZU,CZU,,https://en.wikipedia.org/wiki/Las_Brujas_Airport_(Colombia),,750,2015-05-08T23:54:19+00:00
6126,SKIP,medium_airport,"San Luis Airport",0.861946,-77.671783,9765,SA,Colombia,CO,"Nariño Department",CO-NAR,NAR,Ipiales,1,SKIP,SKIP,IPI,IPI,,https://en.wikipedia.org/wiki/San_Luis_Airport_(Colombia),,750,2024-04-22T13:56:41+00:00
6141,SKNV,medium_airport,"Benito Salas Airport",2.95015,-75.294,1464,SA,Colombia,CO,"Huila Department",CO-HUI,HUI,Neiva,1,SKNV,SKNV,NVA,NVA,,https://en.wikipedia.org/wiki/Benito_Salas_Airport,"La Manguita",750,2015-05-09T00:21:46+00:00
6100,SKAS,medium_airport,"Tres De Mayo Airport",0.505228,-76.5008,815,SA,Colombia,CO,"Putumayo Department",CO-PUT,PUT,"Puerto Asís",1,SKAS,SKAS,PUU,PUU,,https://en.wikipedia.org/wiki/Tres_de_Mayo_Airport,,750,2015-05-09T00:30:22+00:00
6146,SKPC,medium_airport,"German Olano Airport",6.18472,-67.4932,177,SA,Colombia,CO,"Vichada Department",CO-VID,VID,"Puerto Carreño",1,SKPC,SKPC,PCR,PCR,,https://en.wikipedia.org/wiki/Germ%C3%A1n_Olano_Airport,"Puerto Carreño Airport",750,2015-05-09T00:36:05+00:00
6147,SKPD,medium_airport,"Obando Cesar Gaviria Trujillo Airport",3.85353,-67.9062,460,SA,Colombia,CO,"Guainía Department",CO-GUA,GUA,"Puerto Inírida",1,SKPD,SKPD,PDA,PDA,,https://en.wikipedia.org/wiki/Obando_Airport,,750,2022-01-15T02:00:19+00:00
6172,SKUI,medium_airport,"El Caraño Airport",5.69076,-76.6412,204,SA,Colombia,CO,"Chocó Department",CO-CHO,CHO,Quibdó,1,SKUI,SKUI,UIB,UIB,,https://en.wikipedia.org/wiki/El_Cara%C3%B1o_Airport,,750,2009-10-20T10:46:26+00:00
6160,SKSJ,medium_airport,"Jorge E. Gonzalez Torres Airport",2.57969,-72.6394,605,SA,Colombia,CO,"Guaviare Department",CO-GUV,GUV,"San José Del Guaviare",1,SKSJ,SKSJ,SJE,SJE,,https://en.wikipedia.org/wiki/Jorge_Enrique_Gonz%C3%A1lez_Torres_Airport,,750,2015-05-09T00:38:44+00:00
6168,SKTM,medium_airport,"Gustavo Vargas Airport",6.45108,-71.7603,1050,SA,Colombia,CO,"Arauca Department",CO-ARA,ARA,Tame,1,SKTM,SKTM,TME,TME,,https://en.wikipedia.org/wiki/Gabriel_Vargas_Santos_Airport,,750,2015-05-09T00:48:55+00:00
6112,SKCO,medium_airport,"La Florida Airport",1.81442,-78.7492,8,SA,Colombia,CO,"Nariño Department",CO-NAR,NAR,Tumaco,1,SKCO,SKCO,TCO,TCO,,https://en.wikipedia.org/wiki/La_Florida_Airport_(Colombia),,750,2015-05-09T00:50:39+00:00
6176,SKVP,medium_airport,"Alfonso López Pumarejo Airport",10.435,-73.2495,483,SA,Colombia,CO,"César Department",CO-CES,CES,Valledupar,1,SKVP,SKVP,VUP,VUP,,https://en.wikipedia.org/wiki/Valledupar_Airport,,750,2009-10-20T10:46:27+00:00
6178,SKYP,medium_airport,"El Alcaravan - Yopal Airport",5.31911,-72.384,1028,NA,Colombia,CO,"Casanare Department",CO-CAS,CAS,Yopal,1,SKYP,SKYP,EYP,EYP,,https://en.wikipedia.org/wiki/El_Alcarav%C3%A1n_Airport,,750,2025-03-09T22:23:59+00:00
6127,SKLC,medium_airport,"Antonio Roldán Betancur Airport",7.81196,-76.7164,46,SA,Colombia,CO,"Antioquía Department",CO-ANT,ANT,Carepa,1,SKLC,SKLC,APO,APO,,https://en.wikipedia.org/wiki/Antonio_Rold%C3%A1n_Betancur_Airport,,500,2023-07-28T19:40:40+00:00
6098,SKAP,medium_airport,"Gomez Nino Apiay Air Base",4.07607,-73.5627,1207,SA,Colombia,CO,"Meta Department",CO-MET,MET,Apiay,0,SKAP,SKAP,API,APY,,https://en.wikipedia.org/wiki/Captain_Luis_F._G%C3%B3mez_Ni%C3%B1o_Air_Base,,325,2012-11-22T08:24:25+00:00
6113,SKCU,medium_airport,"Juan H White Airport",7.96847,-75.1985,174,SA,Colombia,CO,"Antioquía Department",CO-ANT,ANT,Caucasia,0,SKCU,SKCU,CAQ,CAQ,,https://en.wikipedia.org/wiki/Juan_H._White_Airport,"Caucasia Airport",250,2015-05-09T00:59:27+00:00
6120,SKGI,medium_airport,"Santiago Vila Airport",4.27624,-74.7967,900,SA,Colombia,CO,"Cundinamarca Department",CO-CUN,CUN,Girardot,0,SKGI,SKGI,GIR,GIR,,https://en.wikipedia.org/wiki/Santiago_Vila_Airport,,250,2015-05-08T23:59:42+00:00
6152,SKPQ,medium_airport,"German Olano Air Base",5.48361,-74.6574,566,SA,Colombia,CO,"Cundinamarca Department",CO-CUN,CUN,"La Dorada",0,SKPQ,SKPQ,PAL,PQE,,https://en.wikipedia.org/wiki/Captain_Germ%C3%A1n_Olano_Moreno_Air_Base,"Palanquero Airport",250,2014-08-22T01:17:29+00:00
6170,SKUA,medium_airport,"Marandúa Air Base",5.52448,-68.6856,285,SA,Colombia,CO,"Vichada Department",CO-VID,VID,Marandúa,0,SKUA,,,MQZ,,https://en.wikipedia.org/wiki/Marand%C3%BAa_Air_Base,,250,2012-11-22T08:26:17+00:00
6157,SKQU,medium_airport,"Mariquita Airport",5.21256,-74.8836,1531,SA,Colombia,CO,"Tolima Department",CO-TOL,TOL,Mariquita,0,SKQU,SKQU,MQU,MQU,,https://en.wikipedia.org/wiki/Mariquita_Airport,,250,2015-05-09T00:14:49+00:00
6142,SKOC,medium_airport,"Aguas Claras Airport",8.31506,-73.3583,3850,SA,Colombia,CO,"Norte de Santander Department",CO-NSA,NSA,Ocaña,0,SKOC,SKOC,OCV,OCV,,https://en.wikipedia.org/wiki/Aguas_Claras_Airport,,250,2015-05-09T00:24:06+00:00
32314,SKNQ,small_airport,"Reyes Murillo Airport",5.710348,-77.261868,12,SA,Colombia,CO,"Chocó Department",CO-CHO,CHO,Nuquí,1,SKNQ,SKNQ,NQU,NQU,,https://en.wikipedia.org/wiki/Reyes_Murillo_Airport,,150,2024-05-26T17:53:32+00:00
41597,CO-LCR,small_airport,"Virgilio Barco Vargas (La Chorrera) Airport",-1.456361,-72.801086,564,SA,Colombia,CO,"Amazonas Department",CO-AMA,AMA,"La Chorrera",1,SKHZ,,LCR,,,https://en.wikipedia.org/wiki/La_Chorrera_Airport,,100,2025-02-02T16:57:51+00:00
308661,SKNA,small_airport,"La Macarena Airport",2.17565,-73.78674,790,SA,Colombia,CO,"Meta Department",CO-MET,MET,"La Macarena",1,SKNA,SKNA,LMC,,,https://en.wikipedia.org/wiki/La_Macarena_Airport,"Aeropuerto Javier Noreña Valencia",100,2024-04-22T20:51:54+00:00
40887,SK-409,small_airport,"El Diamante Airport",4.571667,-74.939167,1268,SA,Colombia,CO,"Tolima Department",CO-TOL,TOL,Alvarado,0,,,,ALV,,,,50,2009-10-20T10:45:57+00:00
40894,SK-446,small_airport,"Ventaquemada Airport",4.516667,-74.983333,1700,SA,Colombia,CO,"Tolima Department",CO-TOL,TOL,Alvarado,0,,,,VTQ,,,,50,2009-10-20T10:46:01+00:00
40898,SK-404,small_airport,"Calicanto Airport",4.488611,-75.01,2024,SA,Colombia,CO,"Tolima Department",CO-TOL,TOL,Alvarado,0,,,,CAT,,,,50,2009-10-20T10:45:57+00:00
40868,SK-405,small_airport,"Cerritos Airport",4.841625,-74.775853,756,SA,Colombia,CO,"Tolima Department",CO-TOL,TOL,Ambalema,0,,,,CRR,,,,50,2024-10-25T12:30:02+00:00
40869,SK-414,small_airport,"El Santuario Airport",4.905278,-74.785,750,SA,Colombia,CO,"Tolima Department",CO-TOL,TOL,Ambalema,0,,,,AMB,,,,50,2009-10-20T10:45:58+00:00
40870,SK-415,small_airport,"El Triunfo Airport",4.868889,-74.8025,761,SA,Colombia,CO,"Tolima Department",CO-TOL,TOL,Ambalema,0,,,,ETR,,,,50,2009-10-20T10:45:58+00:00
40873,SK-433,small_airport,"Pajonales Airport",4.759444,-74.833056,767,SA,Colombia,CO,"Tolima Department",CO-TOL,TOL,Ambalema,0,,,,PJS,,,,50,2009-10-20T10:45:59+00:00
41044,SK-144,small_airport,"Ayacucho Airport",8.6,-73.616667,415,SA,Colombia,CO,"César Department",CO-CES,CES,Ayacucho,0,,,AYC,AYC,,,,50,2012-06-24T18:00:43+00:00
40871,SK-210,small_airport,"Colombaima Airport",4.739167,-74.805,745,SA,Colombia,CO,"Cundinamarca Department",CO-CUN,CUN,Beltran,0,,,,COL,,,,50,2009-10-20T10:45:41+00:00
40849,SK-213,small_airport,"La Libélula Airport",4.919444,-74.055833,8410,SA,Colombia,CO,"Cundinamarca Department",CO-CUN,CUN,Cajiga,0,,,,CJI,,,,50,2009-10-20T10:45:41+00:00
6119,SKGB,small_airport,"Marco Fidel Suarez Air Base",3.45899,-76.4966,3165,SA,Colombia,CO,"Valle del Cauca Department",CO-VAC,VAC,Cali,0,SKGB,,,,,https://en.wikipedia.org/wiki/Marco_Fidel_Su%C3%A1rez_Air_Base,,50,2024-05-18T22:59:15+00:00
40892,SK-406,small_airport,"Chicoral - Estra Airport",4.202222,-74.969722,1248,SA,Colombia,CO,"Tolima Department",CO-TOL,TOL,Chicoral,0,,,,CHA,,,,50,2009-10-20T10:45:57+00:00
40775,SK-297,small_airport,"La Cabana Airport",4.301944,-73.369722,1025,SA,Colombia,CO,"Meta Department",CO-MET,MET,Cumaral,0,,,,LAC,,,,50,2009-10-20T10:45:48+00:00
40876,SK-411,small_airport,"El Espinal Airport",4.150556,-74.871111,1031,SA,Colombia,CO,"Tolima Department",CO-TOL,TOL,"El Espinal",0,,,,ESP,,,,50,2009-10-20T10:45:57+00:00
40885,SK-401,small_airport,"Aniversario Estra Airport",4.123056,-74.910833,1058,SA,Colombia,CO,"Tolima Department",CO-TOL,TOL,"El Espinal",0,,,,ESS,,,,50,2009-10-20T10:45:57+00:00
40880,SK-400,small_airport,"Agua Blanca Airport",4.185556,-74.895833,1068,SA,Colombia,CO,"Tolima Department",CO-TOL,TOL,Espinal,0,,,,AGB,,,,50,2009-10-20T10:45:57+00:00
40881,SK-432,small_airport,"Nueva York Airport",4.133333,-74.9,1050,SA,Colombia,CO,"Tolima Department",CO-TOL,TOL,Espinal,0,,,,NYY,,,,50,2009-10-20T10:45:59+00:00
40875,SK-413,small_airport,"El Recuerdo Airport",4.242778,-74.8375,968,SA,Colombia,CO,"Tolima Department",CO-TOL,TOL,Flandes,0,,,,ELR,,,,50,2009-10-20T10:45:57+00:00
40882,SK-440,small_airport,"San Jerónimo Airport",4.376389,-74.9,1633,SA,Colombia,CO,"Tolima Department",CO-TOL,TOL,Flandes,0,,,,SCY,,,,50,2009-10-20T10:45:59+00:00
40874,SK-398,small_airport,"Aerosport Airport",4.183889,-74.834722,958,SA,Colombia,CO,"Tolima Department",CO-TOL,TOL,Flandes,0,,,,FLD,,,,50,2009-10-20T10:45:56+00:00
40867,SK-417,small_airport,"Ganadería Airport",5.170278,-74.764167,762,SA,Colombia,CO,"Tolima Department",CO-TOL,TOL,Honda,0,,,,GTT,,,,50,2009-10-20T10:45:58+00:00
40902,SK-412,small_airport,"El Paraíso Airport",4.386667,-75.023333,2187,SA,Colombia,CO,"Tolima Department",CO-TOL,TOL,Ibague,0,,,,EPR,,,,50,2009-10-20T10:45:57+00:00
40904,SK-408,small_airport,"El Aceituno Airport",4.347222,-75.024167,2131,SA,Colombia,CO,"Tolima Department",CO-TOL,TOL,Ibague,0,,,,ECB,,,,50,2009-10-20T10:45:57+00:00
354456,SKJC,small_airport,"Juanchaco Airport",3.933991,-77.361453,47,SA,Colombia,CO,"Valle del Cauca Department",CO-VAC,VAC,Juanchaco,0,SKJC,,,,,https://en.wikipedia.org/wiki/Juanchaco_Airport,,50,2022-05-18T08:11:11+00:00
41047,SKUB,small_airport,"Uribe Airport",3.2375,-74.347222,8377,SA,Colombia,CO,"Meta Department",CO-MET,MET,"La Uribe",0,SKUB,SKUB,URI,,,https://en.wikipedia.org/wiki/Uribe_Airport,,50,2024-04-25T21:49:30+00:00
40877,SK-420,small_airport,"Hacienda García Airport",4.853889,-74.889167,1087,SA,Colombia,CO,"Tolima Department",CO-TOL,TOL,Lérida,0,,,,LRI,,,,50,2009-10-20T10:45:58+00:00
40883,SK-441,small_airport,"San José Airport",4.942222,-74.906389,1000,SA,Colombia,CO,"Tolima Department",CO-TOL,TOL,Lérida,0,,,,LRA,,,,50,2009-10-20T10:45:59+00:00
40886,SK-425,small_airport,"La Carmelita Airport",4.816111,-74.931944,1437,SA,Colombia,CO,"Tolima Department",CO-TOL,TOL,Lérida,0,,,,LER,,,,50,2009-10-20T10:45:58+00:00
6131,SKMA,small_airport,"Major Justino Mariño Cuesto Air Base",4.727953,-74.2756,8325,NA,Colombia,CO,"Cundinamarca Department",CO-CUN,CUN,Madrid,0,SKMA,,,,,https://en.wikipedia.org/wiki/Major_Justino_Mari%C3%B1o_Cuesto_Air_Base,,50,2024-01-20T20:23:53+00:00
40686,SK-250,small_airport,"Manaure Airport",11.783333,-72.416667,13,SA,Colombia,CO,"La Guajira Department",CO-LAG,LAG,Manaure,0,,,,MAG,,,,50,2009-10-20T10:45:45+00:00
41038,SK-217,small_airport,"Medina Airport",4.483687,-73.344739,1315,SA,Colombia,CO,"Cundinamarca Department",CO-CUN,CUN,Medina,0,,,MND,MND,,,,50,2022-03-18T16:31:46+00:00
6133,SKME,small_airport,"Lieutenant Colonel Luis F. Pinto Parra Air Base",4.21644,-74.635,1028,SA,Colombia,CO,"Cundinamarca Department",CO-CUN,CUN,Melgar,0,SKME,,,,,https://en.wikipedia.org/wiki/Lieutenant_Colonel_Luis_F._Pinto_Parra_Air_Base,,50,2025-02-24T22:38:37+00:00
40582,SK-494,small_airport,"Santa Isabel Airport",0.117778,-70.193056,596,SA,Colombia,CO,"Vaupés Department",CO-VAU,VAU,Mitu,0,,,,MIS,,,,50,2009-10-20T10:46:04+00:00
40595,SK-504,small_airport,"Villa Nueva Airport",0.280556,-70.456667,622,SA,Colombia,CO,"Vaupés Department",CO-VAU,VAU,Mitu,0,,,,MVN,,,,50,2009-10-20T10:46:05+00:00
40852,SK-040,small_airport,"Muzo Airport",5.547222,-74.112778,3000,SA,Colombia,CO,"Boyacá Department",CO-BOY,BOY,Muzo,0,,,,MUZ,,,,50,2009-10-20T10:45:30+00:00
40960,SK-464,small_airport,"Praga Airport",4.589167,-75.981667,3025,SA,Colombia,CO,"Valle del Cauca Department",CO-VAC,VAC,Obando,0,,,,OBA,,,,50,2009-10-20T10:46:01+00:00
32126,SKOE,small_airport,"Orocue Airport",4.79222,-71.3564,434,SA,Colombia,CO,"Casanare Department",CO-CAS,CAS,Orocue,0,SKOE,SKOE,ORC,ORC,,https://en.wikipedia.org/wiki/Orocue_Airport,,50,2024-05-20T20:10:26+00:00
6144,SKPA,small_airport,"Juan Jose Rondon Airport",5.76454,-73.1054,8205,NA,Colombia,CO,"Boyacá Department",CO-BOY,BOY,Paipa,0,SKPA,SKPA,RON,,,https://en.wikipedia.org/wiki/Juan_Jos%C3%A9_Rond%C3%B3n_Airport,,50,2023-03-25T11:39:47+00:00
40891,SK-427,small_airport,"La Opia Airport",4.451389,-74.965556,1856,SA,Colombia,CO,"Tolima Department",CO-TOL,TOL,Piedras,0,,,,PRA,,,,50,2009-10-20T10:45:58+00:00
40896,SK-399,small_airport,"Agua Blanca Airport",4.467222,-74.993333,1920,SA,Colombia,CO,"Tolima Department",CO-TOL,TOL,Piedras,0,,,,ABT,,,,50,2009-10-20T10:45:56+00:00
40901,SK-442,small_airport,"Santa Ana Airport",4.408333,-75.021667,2192,SA,Colombia,CO,"Tolima Department",CO-TOL,TOL,Piedras,0,,,SQB,,,,,50,2009-10-20T10:45:59+00:00
40903,SK-444,small_airport,"Teucali Airport",4.427989,-75.01546,2201,SA,Colombia,CO,"Tolima Department",CO-TOL,TOL,Piedras,0,,,,TEU,,,,50,2024-05-25T01:08:29+00:00
40907,SK-439,small_airport,"San Javier Airport",4.401389,-75.035556,2270,SA,Colombia,CO,"Tolima Department",CO-TOL,TOL,Piedras,0,,,,SJT,,,,50,2009-10-20T10:45:59+00:00
40908,SK-447,small_airport,"Waterloo Airport",4.442222,-75.035556,2262,SA,Colombia,CO,"Tolima Department",CO-TOL,TOL,Piedras,0,,,,PIE,,,,50,2009-10-20T10:46:01+00:00
6175,SKVL,small_airport,"Velásquez Airport",5.93904,-74.457,566,SA,Colombia,CO,"Boyacá Department",CO-BOY,BOY,"Puerto Boyacá",0,SKVL,SKVL,PYA,,,https://en.wikipedia.org/wiki/Velasquez_Airport,,50,2024-05-16T20:32:35+00:00
40627,SK-327,small_airport,"Morelia Airport",3.750453,-71.456137,607,SA,Colombia,CO,"Meta Department",CO-MET,MET,"Puerto Gaitán",0,SKMO,,MSK,PGT,,https://en.wikipedia.org/wiki/Morel%C3%ADa_Airport,,50,2025-02-24T22:27:35+00:00
41034,SKOL,small_airport,"Puerto López Airport",4.089869,-72.976483,599,SA,Colombia,CO,"Meta Department",CO-MET,MET,"Puerto López",0,SKOL,,,,,,,50,2009-10-20T10:46:19+00:00
32310,SKFR,small_airport,"Furatena Airport",5.5275,-74.1869,3850,SA,Colombia,CO,"Boyacá Department",CO-BOY,BOY,Quipama,0,SKFR,,,QPM,,https://en.wikipedia.org/wiki/Furatena_Airport,,50,2024-05-18T22:59:04+00:00
40778,SK-382,small_airport,"El Marne Airport",7.428333,-73.376111,416,SA,Colombia,CO,"Santander Department",CO-SAN,SAN,Rionegro,0,,,,ELM,,,,50,2009-10-20T10:45:56+00:00
40816,SK-384,small_airport,"El Tornillo Airport",7.621667,-73.6225,246,SA,Colombia,CO,"Santander Department",CO-SAN,SAN,Rionegro,0,,,,ETO,,,,50,2009-10-20T10:45:56+00:00
40760,SK-171,small_airport,"La Matua Airport",10.207222,-73.263333,343,SA,Colombia,CO,"César Department",CO-CES,CES,"San Diego",0,,,,LAT,,,,50,2009-10-20T10:45:38+00:00
40820,SK-340,small_airport,"San Juanito Airport",4.433333,-73.65,8198,SA,Colombia,CO,"Meta Department",CO-MET,MET,"San Juanito",0,,,,SJJ,,,,50,2009-10-20T10:45:52+00:00
353409,CO-0068,small_airport,"San Martín Airport",3.70239,-73.68825,1378,SA,Colombia,CO,"Meta Department",CO-MET,MET,"San Martín",0,,,,,,,,50,2022-03-08T20:40:15+00:00
41040,SK-221,small_airport,"San Pedro De Jagua Airport",4.65,-73.333333,2460,SA,Colombia,CO,"Cundinamarca Department",CO-CUN,CUN,"San Pedro De Jagua",0,,,,SJG,,,,50,2009-10-20T10:45:43+00:00
6137,SKMP,small_airport,"San Bernardo Airport",9.258348,-74.438393,60,SA,Colombia,CO,"Bolívar Department",CO-BOL,BOL,"Santa Cruz de Mompóx",0,SKMP,SKMP,MMP,MMP,,https://en.wikipedia.org/wiki/San_Bernardo_Airport,,50,2024-04-23T14:19:50+00:00
6166,SKTI,small_airport,"Tolemaida Air Base",4.2448,-74.649901,1617,SA,Colombia,CO,"Cundinamarca Department",CO-CUN,CUN,"Tolemaida - Nilo",0,SKTI,,,TOL,,https://en.wikipedia.org/wiki/Tolemaida_Air_Base,,50,2018-03-14T16:09:07+00:00
507944,SQKS,small_airport,"Aerodromo Los Campanos",10.883168,-75.032145,92,SA,Colombia,CO,"Atlántico Department",CO-ATL,ATL,Tubará,0,SQKS,,,,https://aeroclubloscampanos.com.co,,,50,2023-07-28T22:39:07+00:00
40878,SK-403,small_airport,"Boluca Airport",4.693611,-74.891944,988,SA,Colombia,CO,"Tolima Department",CO-TOL,TOL,Venadillo,0,,,,BNI,,,,50,2009-10-20T10:45:57+00:00
32320,SKVN,small_airport,"Villanueva Airport",4.62472,-72.9469,1002,SA,Colombia,CO,"Casanare Department",CO-CAS,CAS,Villanueva,0,SKVN,,,VLA,,https://en.wikipedia.org/wiki/Villanueva_Airport,,50,2024-05-21T16:37:10+00:00
45152,CO-0051,heliport,"Fundacion Oftalmologica De Santander Heliport",7.074722,-73.115278,,SA,Colombia,CO,"Santander Department",CO-SAN,SAN,Bucaramanga,0,,,,FUA,,,,0,2012-06-09T22:52:14+00:00
6171,SKUC,medium_airport,"Santiago Perez Airport",7.06888,-70.7369,420,SA,Colombia,CO,"Arauca Department",CO-ARA,ARA,Arauca,1,SKUC,SKUC,AUC,AUC,,https://en.wikipedia.org/wiki/Santiago_P%C3%A9rez_Airport,,750,2009-10-20T10:46:26+00:00
6106,SKBS,medium_airport,"José Celestino Mutis Airport",6.20292,-77.3947,80,SA,Colombia,CO,"Chocó Department",CO-CHO,CHO,"Bahía Solano",1,SKBS,SKBS,BSC,BSC,,https://en.wikipedia.org/wiki/Jos%C3%A9_Celestino_Mutis_Airport,,750,2015-05-08T23:42:57+00:00
6107,SKBU,medium_airport,"Gerardo Tobar López Airport",3.81963,-76.9898,48,SA,Colombia,CO,"Valle del Cauca Department",CO-VAC,VAC,Buenaventura,1,SKBU,SKBU,BUN,BUN,,https://en.wikipedia.org/wiki/Gerardo_Tobar_L%C3%B3pez_Airport,,750,2015-05-08T23:50:48+00:00
6121,SKGO,medium_airport,"Santa Ana Airport",4.75818,-75.9557,2979,SA,Colombia,CO,"Valle del Cauca Department",CO-VAC,VAC,Cartago,0,SKGO,SKGO,CRC,CRC,,https://en.wikipedia.org/wiki/Santa_Ana_Airport_(Colombia),,750,2024-04-22T20:59:26+00:00
6122,SKGP,medium_airport,"Juan Casiano Airport",2.57013,-77.897969,164,SA,Colombia,CO,"Cauca Department",CO-CAU,CAU,Guapi,1,SKGP,SKGP,GPI,GPI,,https://en.wikipedia.org/wiki/Guapi_Airport,,750,2024-04-22T20:49:39+00:00
6151,SKPP,medium_airport,"Guillermo León Valencia Airport",2.4544,-76.6093,5687,SA,Colombia,CO,"Cauca Department",CO-CAU,CAU,Popayán,1,SKPP,SKPP,PPN,PPN,,https://en.wikipedia.org/wiki/Guillermo_Leon_Valencia_Airport,,750,2009-10-20T10:46:19+00:00
6164,SKSV,medium_airport,"Eduardo Falla Solano Airport",2.15217,-74.7663,920,SA,Colombia,CO,"Caquetá Department",CO-CAQ,CAQ,"San Vicente Del Caguán",1,SKSV,SKSV,SVI,SVI,,https://en.wikipedia.org/wiki/Eduardo_Falla_Solano_Airport,,750,2015-05-09T00:41:52+00:00
6129,SKLM,medium_airport,"Jorge Isaac Airport",11.2325,-72.4901,281,SA,Colombia,CO,"La Guajira Department",CO-LAG,LAG,"La Mina-Maicao",0,SKLM,SKLM,MCJ,LMA,,https://en.wikipedia.org/wiki/Jorge_Isaacs_Airport,,325,2011-08-13T01:34:55+00:00
6114,SKCV,medium_airport,"Coveñas Airport",9.40092,-75.6913,31,SA,Colombia,CO,"Sucre Department",CO-SUC,SUC,Coveñas,0,SKCV,SKCV,CVE,CVE,,https://en.wikipedia.org/wiki/Cove%C3%B1as_Airport,,250,2024-05-16T20:28:55+00:00
6116,SKEB,medium_airport,"El Bagre Airport",7.59647,-74.8089,180,SA,Colombia,CO,"Antioquía Department",CO-ANT,ANT,"El Bagre",0,SKEB,SKEB,EBG,EBG,,https://en.wikipedia.org/wiki/El_Bagre_Airport,"El Tomin Airport",250,2015-05-09T01:03:28+00:00
6101,SKBC,medium_airport,"Las Flores Airport",9.04554,-73.9749,111,SA,Colombia,CO,"Magdalena Department",CO-MAG,MAG,"El Banco",0,SKBC,SKBC,ELB,ELB,,https://en.wikipedia.org/wiki/Las_Flores_Airport_(Colombia),,250,2024-04-22T13:43:09+00:00
6134,SKMG,medium_airport,"Baracoa Airport",9.28474,-74.8461,178,SA,Colombia,CO,"Bolívar Department",CO-BOL,BOL,Magangué,0,SKMG,SKMG,MGN,MGN,,https://en.wikipedia.org/wiki/Baracoa_Regional_Airport,,250,2015-05-09T01:08:04+00:00
6156,SKPZ,medium_airport,"Paz De Ariporo Airport",5.87615,-71.8866,900,SA,Colombia,CO,"Casanare Department",CO-CAS,CAS,"Paz De Ariporo",0,SKPZ,SKPZ,PZA,PZA,,https://en.wikipedia.org/wiki/Paz_de_Ariporo_Airport,,250,2024-05-20T20:10:45+00:00
6149,SKPI,medium_airport,"Pitalito Airport",1.85777,-76.0857,4212,SA,Colombia,CO,"Huila Department",CO-HUI,HUI,Pitalito,0,SKPI,SKPI,PTX,,,https://en.wikipedia.org/wiki/Contador_Airport,,250,2024-05-16T20:29:47+00:00
6169,SKTQ,medium_airport,"Captain Ernesto Esguerra Cubides Air Base",0.7459,-75.234,585,SA,Colombia,CO,"Caquetá Department",CO-CAQ,CAQ,"Tres Esquinas",0,SKTQ,SKTQ,TQS,TQS,,https://en.wikipedia.org/wiki/Captain_Ernesto_Esguerra_Cubides_Air_Base,,250,2024-04-22T13:51:22+00:00
6173,SKUL,medium_airport,"Heriberto Gíl Martínez Airport",4.08836,-76.2351,3132,SA,Colombia,CO,"Valle del Cauca Department",CO-VAC,VAC,Tuluá,0,SKUL,SKUL,ULQ,ULQ,,https://en.wikipedia.org/wiki/Heriberto_G%C3%ADl_Mart%C3%ADnez_Airport,"Farfan Airport",250,2015-05-09T02:21:47+00:00
6167,SKTJ,medium_airport,"Tunja Airport",5.54138,-73.3445,8940,SA,Colombia,CO,"Boyacá Department",CO-BOY,BOY,Tunja,0,SKTJ,,,,,https://en.wikipedia.org/wiki/Tunja_Airport,,250,2024-05-18T23:00:20+00:00
32572,SKGZ,small_airport,"La Jagua Airport",2.1464,-75.6944,2620,SA,Colombia,CO,"Huila Department",CO-HUI,HUI,Garzón,1,SKGZ,,,GLJ,,https://en.wikipedia.org/wiki/Garz%C3%B3n_Airport,Garzón,150,2024-04-25T21:44:46+00:00
31844,SKLP,small_airport,"La Pedrera Airport",-1.324882,-69.581294,590,SA,Colombia,CO,"Amazonas Department",CO-AMA,AMA,"La Pedrera",1,SKLP,SKLP,LPD,LPD,,https://en.wikipedia.org/wiki/La_Pedrera_Airport,,150,2024-11-20T04:29:30+00:00
6128,SKLG,small_airport,"Caucaya Airport",-0.182278,-74.7708,573,SA,Colombia,CO,"Putumayo Department",CO-PUT,PUT,"Puerto Leguízamo",1,SKLG,SKLG,LQM,LQM,,https://en.wikipedia.org/wiki/Caucay%C3%A1_Airport,,150,2015-05-09T02:02:20+00:00
6143,SKOT,small_airport,"Otu Airport",7.010532,-74.715398,2060,SA,Colombia,CO,"Antioquía Department",CO-ANT,ANT,Remedios,0,SKOT,SKOT,OTU,,,https://en.wikipedia.org/wiki/Ot%C3%BA_Airport,"El Rhin",150,2025-01-10T11:58:09+00:00
35319,SKRA,small_airport,"Tarapacá Airport",-2.895802,-69.749762,253,SA,Colombia,CO,"Amazonas Department",CO-AMA,AMA,Tarapacá,1,SKRA,SKRA,TCD,,,https://en.wikipedia.org/wiki/Tarapac%C3%A1_Airport,,150,2023-07-28T19:26:42+00:00
32460,SKTL,small_airport,"Golfo de Morrosquillo Airport",9.50945,-75.5854,16,SA,Colombia,CO,"Sucre Department",CO-SUC,SUC,"Santiago de Tolú",1,SKTL,SKTL,TLU,TLU,,https://en.wikipedia.org/wiki/Golfo_de_Morrosquillo_Airport,,100,2021-10-08T17:55:20+00:00
32318,SKSA,small_airport,"Los Colonizadores Airport",6.951868,-71.857179,680,SA,Colombia,CO,"Arauca Department",CO-ARA,ARA,Saravena,1,SKSA,SKSA,RVE,SRV,,https://en.wikipedia.org/wiki/Los_Colonizadores_Airport,"El Eden Airport",100,2016-03-11T22:04:45+00:00
316785,CO-0052,small_airport,"Loreto North Airstrip",-3.524,-70.328,505,SA,Colombia,CO,"Amazonas Department",CO-AMA,AMA,,0,,,,,,,,50,2016-01-23T10:40:42+00:00
316786,CO-0053,closed,"Nugent Airstrip",-3.863,-70.04,415,SA,Colombia,CO,"Amazonas Department",CO-AMA,AMA,,0,,,,,,,,50,2023-07-28T19:33:48+00:00
45100,SKGA,small_airport,"La Gaviota Airport",4.550543,-70.925353,591,SA,Colombia,CO,"Vichada Department",CO-VID,VID,,0,SKGA,SKGA,LGT,,,https://en.wikipedia.org/wiki/Las_Gaviotas_Airport,,50,2025-02-24T22:29:17+00:00
338088,CO-0059,small_airport,"La Venturosa West Airstrip",6.159436,-69.032764,250,SA,Colombia,CO,"Vichada Department",CO-VID,VID,,0,,,,,,,,50,2020-12-27T17:46:07+00:00
40741,SK-370,small_airport,"Santa Lucía Airport",8.043373,-73.211586,4720,SA,Colombia,CO,"Norte de Santander Department",CO-NSA,NSA,Abrego,0,,,,SLU,,,,50,2016-03-12T10:30:07+00:00
40758,SK-156,small_airport,"El Monasterio Airport",8.944722,-73.258333,745,SA,Colombia,CO,"César Department",CO-CES,CES,Acacias,0,,,,ACI,,,,50,2009-10-20T10:45:36+00:00
40802,SK-336,small_airport,"Quebraditas Airport",3.945278,-73.536667,1119,SA,Colombia,CO,"Meta Department",CO-MET,MET,Acacias,0,,,,ACS,,,,50,2009-10-20T10:45:52+00:00
30613,SKAD,small_airport,"Alcides Fernández Airport",8.497847,-77.274106,50,SA,Colombia,CO,"Chocó Department",CO-CHO,CHO,Acandí,0,SKAD,SKAD,ACD,ACD,,https://en.wikipedia.org/wiki/Alcides_Fern%C3%A1ndez_Airport,,50,2021-10-06T17:40:30+00:00
30845,SKCA,small_airport,"Capurganá Airport",8.632169,-77.350262,49,SA,Colombia,CO,"Chocó Department",CO-CHO,CHO,Acandí,0,SKCA,SKCA,CPB,CPB,,https://en.wikipedia.org/wiki/Capurgan%C3%A1_Airport,,50,2024-05-16T20:28:13+00:00
505195,CO-0081,small_airport,"Tanela Airport",8.39047,-77.27398,260,SA,Colombia,CO,"Chocó Department",CO-CHO,CHO,Acandí,0,,,,,,,,50,2022-11-30T16:07:22+00:00
41015,SK-471,small_airport,"Acaricuara Airport",0.533333,-70.133333,587,SA,Colombia,CO,"Vaupés Department",CO-VAU,VAU,Acaricuara,0,,,ARF,ARF,,,,50,2012-06-17T19:14:27+00:00
32306,SKAG,small_airport,"Hacaritama Airport",8.247,-73.5814,545,NA,Colombia,CO,"César Department",CO-CES,CES,Aguachica,0,SKAG,SKAG,HAY,AGH,,https://en.wikipedia.org/wiki/Hacaritama_Airport,,50,2024-08-07T18:49:26+00:00
40810,AGI,small_airport,"El Paraíso Airport",8.128611,-73.584722,303,SA,Colombia,CO,"César Department",CO-CES,CES,Aguachica,0,,,,AGI,,,,50,2009-10-20T10:56:05+00:00
40818,SK-145,small_airport,"Base Principal Celta Airport",8.2025,-73.631667,317,SA,Colombia,CO,"César Department",CO-CES,CES,Aguachica,0,,,,AGY,,,,50,2009-10-20T10:45:36+00:00
40819,SK-150,small_airport,"Calima Airport",8.283333,-73.645833,400,SA,Colombia,CO,"César Department",CO-CES,CES,Aguachica,0,,,,CAL,,,,50,2009-10-20T10:45:36+00:00
40726,CO-0489,closed,"Aguaclara Airport",4.747105,-72.987735,1090,SA,Colombia,CO,"Casanare Department",CO-CAS,CAS,Aguaclara,0,,,,,,https://en.wikipedia.org/wiki/Aguaclara_Airport,"ACL, ACL, ACL, SK-048",50,2025-02-25T14:49:56+00:00
40684,SK-069,closed,"El Porvenir Airport",5.19347,-72.40347,787,NA,Colombia,CO,"Casanare Department",CO-CAS,CAS,Aguazul,0,,,,,,,"Yopal South, AZG",50,2025-03-09T22:20:35+00:00
40685,SK-068,small_airport,"El Moriche Airport",5.015556,-72.406944,670,SA,Colombia,CO,"Casanare Department",CO-CAS,CAS,Aguazul,0,,,,AGM,,,,50,2009-10-20T10:45:32+00:00
40687,SK-107,small_airport,"Maríaangélica Airport",5.054167,-72.445278,715,SA,Colombia,CO,"Casanare Department",CO-CAS,CAS,Aguazul,0,,,,AGU,,,,50,2009-10-20T10:45:34+00:00
40688,SK-082,small_airport,"Jamaica Airport",5.090241,-72.447047,751,NA,Colombia,CO,"Casanare Department",CO-CAS,CAS,Aguazul,0,,,,AGJ,,,"Aguazul South",50,2025-03-09T22:17:51+00:00
40692,SK-077,small_airport,"Fasca Main Base Airport",5.153112,-72.516871,853,NA,Colombia,CO,"Casanare Department",CO-CAS,CAS,Aguazul,0,,,,FCA,,,,50,2025-03-09T22:16:15+00:00
40926,SK-239,small_airport,"La Manga Airport",3.246944,-75.246111,1319,SA,Colombia,CO,"Huila Department",CO-HUI,HUI,Aipe,0,,,,AIH,,,,50,2009-10-20T10:45:44+00:00
30620,SKAM,small_airport,"Amalfi Airport",6.895033,-75.047334,5507,SA,Colombia,CO,"Antioquía Department",CO-ANT,ANT,Amalfi,0,SKAM,SKAM,AFI,AFI,,https://en.wikipedia.org/wiki/Amalfi_Airport_(Colombia),,50,2023-07-28T19:10:59+00:00
41068,CO-0493,closed,"Andes Airport",5.69764,-75.88038,3900,SA,Colombia,CO,"Antioquía Department",CO-ANT,ANT,Andes,0,,,,,https://www.comfenalcoantioquia.com.co/personas/sedes/ecoparque-mario-aramburo-restrepo,https://en.wikipedia.org/wiki/Andes_Airport,"SKAN, ADN",50,2025-02-25T14:49:56+00:00
40990,SK-011,small_airport,"Los Planes Airport",7.833184,-76.645445,158,SA,Colombia,CO,"Antioquía Department",CO-ANT,ANT,Apartado,0,SQPS,,,LPL,,,,50,2024-05-04T16:32:46+00:00
505193,CO-0079,small_airport,"Finca San Jacinto Airport",7.90635,-76.65152,72,SA,Colombia,CO,"Antioquía Department",CO-ANT,ANT,Apartadó,0,,,,,,,,50,2023-07-28T21:39:59+00:00
30615,SKAC,small_airport,"Araracuara Airport",-0.600854,-72.398011,1250,SA,Colombia,CO,"Caquetá Department",CO-CAQ,CAQ,Araracuara,0,SKAC,SKAC,ACR,ACR,,https://en.wikipedia.org/wiki/Araracuara_Airport,,50,2024-04-22T13:48:12+00:00
40576,SK-028,small_airport,"La Rubiera Airport",6.773056,-70.018889,319,SA,Colombia,CO,"Arauca Department",CO-ARA,ARA,Arauca,0,,,,ARA,,,,50,2009-10-20T10:45:28+00:00
429705,SKAT,small_airport,"El Troncal Airport",7.02106,-71.388901,512,SA,Colombia,CO,"Arauca Department",CO-ARA,ARA,Arauquita,0,SKAT,SKAT,ARQ,ARQ,,https://en.wikipedia.org/wiki/El_Troncal_Airport,,50,2022-09-03T14:56:24+00:00
41073,SK-005,small_airport,"Arboletes Airport",8.855118,-76.422676,13,SA,Colombia,CO,"Antioquía Department",CO-ANT,ANT,Arboletes,0,,,ARO,ARO,,https://fr.wikipedia.org/wiki/A%C3%A9roport_d%27Arboletes,,50,2024-05-20T20:08:43+00:00
41025,ACM,small_airport,"Arica Airport",-2.143713,-71.75935,316,SA,Colombia,CO,"Amazonas Department",CO-AMA,AMA,Arica,0,,,ACM,,,https://en.wikipedia.org/wiki/Arica_Airport_(Colombia),,50,2024-04-22T13:44:40+00:00
40845,SK-259,small_airport,"El Coraje Airport",10.038056,-74.02,260,SA,Colombia,CO,"Magdalena Department",CO-MAG,MAG,Ariguani,0,,,,AUR,,,,50,2009-10-20T10:45:46+00:00
6150,SKPN,small_airport,"Puerto Nare Airport",6.21002,-74.5906,476,SA,Colombia,CO,"Antioquía Department",CO-ANT,ANT,Armenia,0,SKPN,SKPN,NAR,NAR,,https://en.wikipedia.org/wiki/Puerto_Nare_Airport,,50,2024-05-16T20:30:25+00:00
40946,SK-372,small_airport,"El Cedrito Airport",4.556944,-75.723889,4366,SA,Colombia,CO,"Quindio Department",CO-QUI,QUI,Armenia,0,,,,ARE,,,,50,2009-10-20T10:45:55+00:00
40949,SK-374,small_airport,"Portugalito Airport",4.385833,-75.767778,3797,SA,Colombia,CO,"Quindio Department",CO-QUI,QUI,Armenia,0,,,,AMN,,,,50,2009-10-20T10:45:55+00:00
40934,SK-402,small_airport,"Ataco Airport",3.570833,-75.411111,1506,SA,Colombia,CO,"Tolima Department",CO-TOL,TOL,Ataco,0,,,,ATC,,,,50,2009-10-20T10:45:57+00:00
40897,SK-201,small_airport,"La Concepción Airport",8.119444,-75.008611,205,SA,Colombia,CO,"Córdoba Department",CO-COR,COR,Ayapel,0,,,,LAN,,,,50,2009-10-20T10:45:40+00:00
40916,SK-200,small_airport,"El Cebruno Airport",8.329167,-75.132222,81,SA,Colombia,CO,"Córdoba Department",CO-COR,COR,Ayapel,0,,,,CEB,,,,50,2009-10-20T10:45:40+00:00
41059,SK-198,small_airport,"Ayapel Airport",8.3,-75.15,120,SA,Colombia,CO,"Córdoba Department",CO-COR,COR,Ayapel,0,,,AYA,AYA,,https://en.wikipedia.org/wiki/Ayapel_Airport,,50,2012-06-24T17:50:52+00:00
317277,CO-0056,small_airport,"Patetal Airport",8.231858,-75.058043,145,SA,Colombia,CO,"Córdoba Department",CO-COR,COR,Ayapel,0,,,,,,,,50,2016-03-13T08:05:27+00:00
41080,SK-189,small_airport,"Bahia Cupica Airport",6.55,-77.3263,200,NA,Colombia,CO,"Chocó Department",CO-CHO,CHO,"Bahía Cupica",0,,,,BHF,,,,50,2023-11-19T16:31:05+00:00
45099,SKCP,small_airport,"Cupica Airport",6.694817,-77.493643,,SA,Colombia,CO,"Chocó Department",CO-CHO,CHO,"Bahía Solano",0,SKCP,SKCP,BHF,,,https://en.wikipedia.org/wiki/Cupica_Airport,,50,2024-04-22T20:56:35+00:00
40999,SK-195,small_airport,"Pizarro Airport",4.961621,-77.363913,7,NA,Colombia,CO,"Chocó Department",CO-CHO,CHO,"Bajo Baudó",0,SQZJ,,PZR,BBA,,https://es.wikipedia.org/wiki/Aeropuerto_de_Pizarro,,50,2024-07-12T06:42:36+00:00
40957,SK-376,small_airport,"Ingenio Risaralda Airport",4.895556,-75.915833,2940,SA,Colombia,CO,"Risaralda Department",CO-RIS,RIS,Balboa,0,,,,BAL,,,,50,2009-10-20T10:45:55+00:00
40814,SK-377,small_airport,"Barbosa Airport",5.943333,-73.611389,5176,SA,Colombia,CO,"Santander Department",CO-SAN,SAN,Barbosa,0,,,,BSA,,,,50,2009-10-20T10:45:55+00:00
41033,SK-272,small_airport,"Barranca De Upia Airport",4.583333,-72.966667,670,SA,Colombia,CO,"Meta Department",CO-MET,MET,"Barranca De Upia",0,,,BAC,BAC,,,,50,2012-06-26T00:18:13+00:00
40808,SK-385,small_airport,"La Cascajera Airport",7.167139,-73.577728,360,SA,Colombia,CO,"Santander Department",CO-SAN,SAN,Barrancabermeja,0,,,,BJE,,,,50,2021-03-29T11:25:24+00:00
40700,SK-248,small_airport,"Cerrejón Central Airport",11.038056,-72.695,395,SA,Colombia,CO,"La Guajira Department",CO-LAG,LAG,Barrancas,0,,,,BCA,,,,50,2009-10-20T10:45:45+00:00
40703,CO-0488,closed,"Oreganal Airport",10.979444,-72.739444,480,SA,Colombia,CO,"La Guajira Department",CO-LAG,LAG,Barrancas,0,,,,,,,"BCU, SK-251",50,2025-02-25T14:49:56+00:00
40716,SK-290,small_airport,"Guaicarano Airport",4.460556,-72.95,650,SA,Colombia,CO,"Meta Department",CO-MET,MET,"Barranco De Upía",0,,,,BAR,,,,50,2009-10-20T10:45:48+00:00
40570,SKBM,small_airport,"Barranco Minas Airport",3.490691,-69.808151,430,SA,Colombia,CO,"Guainía Department",CO-GUA,GUA,"Barranco Minas",0,SKBM,SKBM,NBB,,,,,50,2022-03-04T16:23:24+00:00
353305,CO-0066,small_airport,"Arabia Airport",3.60726,-69.046761,486,SA,Colombia,CO,"Guainía Department",CO-GUA,GUA,"Barranco Minas",0,,,,,,,,50,2022-03-04T16:16:59+00:00
41017,SK-222,small_airport,"Barrancominas Airport",3.333333,-70.333333,1500,SA,Colombia,CO,"Guainía Department",CO-GUA,GUA,Barrancominas,0,,,,BMG,,,,50,2009-10-20T10:45:43+00:00
40935,SK-032,small_airport,"El Tambo Airport",10.481667,-75.413611,82,SA,Colombia,CO,"Bolívar Department",CO-BOL,BOL,Bayunca,0,,,,BYA,,,,50,2009-10-20T10:45:29+00:00
32308,SKBE,small_airport,"Becerril Airport",9.66278,-73.2744,433,SA,Colombia,CO,"César Department",CO-CES,CES,Becerril,0,SKBE,,,BEC,,,,50,2009-10-20T10:46:07+00:00
41064,SKBR,small_airport,"Berástegui Airport",8.885319,-75.682189,38,SA,Colombia,CO,"Córdoba Department",CO-COR,COR,Berástegui,0,SKBR,,,BIC,,https://en.wikipedia.org/wiki/Ber%C3%A1stegui_Airport,,50,2024-05-18T22:58:43+00:00
41007,SK-359,small_airport,"Bocas De Satinga Airport",2.35,-78.316667,18,SA,Colombia,CO,"Nariño Department",CO-NAR,NAR,"Bocas De Satinga",0,,,,BDS,,,,50,2009-10-20T10:45:54+00:00
40839,SK-173,small_airport,"La Palma Airport",9.839444,-73.867222,175,SA,Colombia,CO,"César Department",CO-CES,CES,Bosconia,0,,,,LPA,,,,50,2009-10-20T10:45:38+00:00
40840,SK-164,small_airport,"Julia Carolina Airport",9.942222,-73.868056,256,SA,Colombia,CO,"César Department",CO-CES,CES,Bosconia,0,,,,BCO,,,,50,2009-10-20T10:45:37+00:00
40841,SK-184,small_airport,"San Martin Airport",9.955556,-73.875556,259,SA,Colombia,CO,"César Department",CO-CES,CES,Bosconia,0,,,,BOC,,,,50,2009-10-20T10:45:39+00:00
40890,SK-397,small_airport,"San Pedro Airport",9.34,-74.9575,311,SA,Colombia,CO,"Sucre Department",CO-SUC,SUC,Buenavista,0,,,,BVS,,,,50,2009-10-20T10:45:56+00:00
40979,SK-452,small_airport,"El Milagro Airport",3.853889,-76.337222,3082,SA,Colombia,CO,"Valle del Cauca Department",CO-VAC,VAC,Buga,0,,,,BGN,,,,50,2009-10-20T10:46:01+00:00
40961,SK-468,small_airport,"San Pablo Airport",4.201667,-76.016944,3434,SA,Colombia,CO,"Valle del Cauca Department",CO-VAC,VAC,"Buga La Grande",0,,,,BDE,,,,50,2009-10-20T10:46:01+00:00
40709,SK-332,small_airport,"Petriba(Guayabal) Airport",4.361667,-72.827778,572,SA,Colombia,CO,"Meta Department",CO-MET,MET,Cabuyaro,0,,,,CEU,,,,50,2009-10-20T10:45:52+00:00
40718,SK-320,small_airport,"Los Gavanes Airport",4.203521,-72.98107,584,SA,Colombia,CO,"Meta Department",CO-MET,MET,Cabuyaro,0,,,,CBA,,,,50,2025-02-24T22:34:41+00:00
40719,SK-296,small_airport,"La Arabia Airport",4.393333,-72.989167,615,SA,Colombia,CO,"Meta Department",CO-MET,MET,Cabuyaro,0,,,,CBY,,,,50,2009-10-20T10:45:48+00:00
40721,SK-288,small_airport,"El Vergel Airport",4.20644,-72.997149,589,SA,Colombia,CO,"Meta Department",CO-MET,MET,Cabuyaro,0,,,,CRY,,,,50,2025-02-24T22:33:08+00:00
40725,SK-357,small_airport,"Yalconia Airport",4.335,-73.045833,629,SA,Colombia,CO,"Meta Department",CO-MET,MET,Cabuyaro,0,,,,CYE,,,,50,2009-10-20T10:45:53+00:00
40728,SK-281,small_airport,"El Edén Airport",4.304167,-73.074167,632,SA,Colombia,CO,"Meta Department",CO-MET,MET,Cabuyaro,0,,,,CYO,,,,50,2009-10-20T10:45:47+00:00
40984,SK-139,small_airport,"La Cabaña Airport",3.04428,-76.4106,3554,SA,Colombia,CO,"Cauca Department",CO-CAU,CAU,Caloto,0,,,,CTO,,,,50,2009-10-20T10:45:36+00:00
40985,SK-138,small_airport,"La Arrobleda Airport",3.125,-76.431667,3244,SA,Colombia,CO,"Cauca Department",CO-CAU,CAU,Caloto,0,,,,LAR,,,,50,2009-10-20T10:45:36+00:00
41067,SK-422,small_airport,"Herrera Airport",3.216667,-75.85,5740,SA,Colombia,CO,"Tolima Department",CO-TOL,TOL,Campiña,0,,,HRR,HRR,,,,50,2014-11-22T20:47:01+00:00
40929,SK-235,small_airport,"El Viso Airport",2.734167,-75.331944,1579,SA,Colombia,CO,"Huila Department",CO-HUI,HUI,"Campo Alegre",0,,,,CUM,,,,50,2009-10-20T10:45:43+00:00
40930,SK-232,small_airport,"Campo Alegre Airport",2.663056,-75.34,1760,SA,Colombia,CO,"Huila Department",CO-HUI,HUI,"Campo Alegre",0,,,,CMP,,,,50,2009-10-20T10:45:43+00:00
40931,SK-234,small_airport,"El Limonar Airport",2.626944,-75.356944,1888,SA,Colombia,CO,"Huila Department",CO-HUI,HUI,"Campo Alegre",0,,,,ELH,,,,50,2009-10-20T10:45:43+00:00
40976,SK-455,small_airport,"Ingenio Mayaguez Airport",3.395,-76.326944,3234,SA,Colombia,CO,"Valle del Cauca Department",CO-VAC,VAC,Candelaria,0,,,,CAD,,,,50,2009-10-20T10:46:01+00:00
40980,SK-463,small_airport,"Las Cañas Airport",3.309167,-76.338889,3246,SA,Colombia,CO,"Valle del Cauca Department",CO-VAC,VAC,Candelaria,0,,,,CNL,,,,50,2009-10-20T10:46:01+00:00
40982,SK-459,small_airport,"La Esmeralda Airport",3.379722,-76.398889,3159,SA,Colombia,CO,"Valle del Cauca Department",CO-VAC,VAC,Candelaria,0,,,,CDA,,,,50,2009-10-20T10:46:01+00:00
40983,SK-449,small_airport,"Cavasa Airport",3.409444,-76.406944,3151,SA,Colombia,CO,"Valle del Cauca Department",CO-VAC,VAC,Candelaria,0,,,,CVS,,,,50,2009-10-20T10:46:01+00:00
41053,SK-275,small_airport,"Candilejas Airport",2.066667,-74.583333,1000,SA,Colombia,CO,"Meta Department",CO-MET,MET,Candilejas,0,,,CJD,CJD,,,,50,2024-04-23T14:18:19+00:00
351499,CO-0064,small_airport,"Caño Colorado Airport",2.27219,-68.35831,294,SA,Colombia,CO,"Guainía Department",CO-GUA,GUA,"Caño Colorado",0,,,,,,,,50,2022-01-15T01:54:33+00:00
41049,SK-277,small_airport,"Caquetania Airport",2.033333,-74.216667,900,SA,Colombia,CO,"Meta Department",CO-MET,MET,Caquetania,0,,,CQT,CQT,,,,50,2014-08-02T20:29:59+00:00
351498,CO-0063,small_airport,"Caranacoa Airport",2.43252,-68.92068,,SA,Colombia,CO,"Guainía Department",CO-GUA,GUA,Caranacoa,0,,,,,,,,50,2022-01-15T01:58:34+00:00
40991,SK-010,small_airport,"Los Almendros Airport",7.791594,-76.651962,88,SA,Colombia,CO,"Antioquía Department",CO-ANT,ANT,Carepa,0,,,,LAO,,,,50,2022-03-18T02:38:42+00:00
32309,SKCB,small_airport,"Carmen De Bolivar Airport",9.68417,-75.1261,590,SA,Colombia,CO,"Bolívar Department",CO-BOL,BOL,"Carmen De Bolivar",0,SKCB,,,CBR,,https://en.wikipedia.org/wiki/El_Carmen_de_Bol%C3%ADvar_Airport,,50,2024-05-18T22:58:53+00:00
353411,CO-0070,small_airport,"Cocosolo Airport",10.35052,-75.50218,20,SA,Colombia,CO,"Bolívar Department",CO-BOL,BOL,"Cartagena de Indias",0,,,,,,,,50,2022-03-08T20:46:48+00:00
41057,SKCH,small_airport,"El Pacífico Airport",1.35,-74.84,754,SA,Colombia,CO,"Caquetá Department",CO-CAQ,CAQ,"Cartagena Del Chiara",0,SKCH,,,CCH,,,,50,2009-10-20T10:46:09+00:00
30862,SKCR,small_airport,"Carurú Airport",1.013822,-71.297343,820,SA,Colombia,CO,"Vaupés Department",CO-VAU,VAU,Carurú,0,SKCR,SKCR,CUO,CRU,,https://en.wikipedia.org/wiki/Carur%C3%BA_Airport,,50,2024-04-22T13:49:41+00:00
40799,SK-302,small_airport,"La Diana Airport",3.804722,-73.520278,993,SA,Colombia,CO,"Meta Department",CO-MET,MET,Castilla,0,,,,CAX,,,,50,2009-10-20T10:45:49+00:00
40765,SK-313,small_airport,"La Union Airport",3.331667,-73.295,,SA,Colombia,CO,"Meta Department",CO-MET,MET,"Castilla La Nueva",0,,,,CLA,,,,50,2009-10-20T10:45:50+00:00
40781,SK-278,small_airport,"El Cairo Airport",3.773056,-73.385833,849,SA,Colombia,CO,"Meta Department",CO-MET,MET,"Castilla La Nueva",0,,,,ELC,,,,50,2009-10-20T10:45:47+00:00
40790,SK-345,small_airport,"San Vicente Airport",3.840833,-73.456389,937,SA,Colombia,CO,"Meta Department",CO-MET,MET,"Castilla La Nueva",0,,,,GNU,,,,50,2009-10-20T10:45:53+00:00
40794,SK-291,small_airport,"Guamitos Airport",3.827778,-73.476389,950,SA,Colombia,CO,"Meta Department",CO-MET,MET,"Castilla La Nueva",0,,,,CVA,,,,50,2009-10-20T10:45:48+00:00
40795,SK-287,small_airport,"El Ruby Airport",3.781111,-73.481667,953,SA,Colombia,CO,"Meta Department",CO-MET,MET,"Castilla La Nueva",0,,,,ELU,,,,50,2009-10-20T10:45:48+00:00
40800,SK-317,small_airport,"Las Juanas Airport",3.823333,-73.532222,1017,SA,Colombia,CO,"Meta Department",CO-MET,MET,"Castilla La Nueva",0,,,,LAU,,,,50,2009-10-20T10:45:51+00:00
41011,SK-511,small_airport,"Casuarito Airport",5.833333,-68.133333,245,SA,Colombia,CO,"Vichada Department",CO-VID,VID,Casuarito,0,,,CSR,CSR,,,,50,2014-08-05T02:15:51+00:00
353304,CO-0065,small_airport,"Cejal Airport",3.99822,-68.33819,322,SA,Colombia,CO,"Vichada Department",CO-VID,VID,Cejal,0,,,,,,,,50,2022-03-04T16:14:17+00:00
40953,SK-203,small_airport,"Los Mochuelos Airport",8.91,-75.799167,34,SA,Colombia,CO,"Córdoba Department",CO-COR,COR,Cerete,0,,,,LME,,,,50,2009-10-20T10:45:41+00:00
30847,SKHA,small_airport,"General Navas Pardo Airport",3.724293,-75.465785,2730,SA,Colombia,CO,"Tolima Department",CO-TOL,TOL,Chaparral,0,SKHA,SKHA,CPL,CPL,,https://en.wikipedia.org/wiki/General_Navas_Pardo_Airport,,50,2024-04-25T23:16:29+00:00
31666,SKIG,small_airport,"Jaime Ortiz Betancourt Airport",7.677606,-76.683165,110,SA,Colombia,CO,"Antioquía Department",CO-ANT,ANT,Chigorodó,0,SKIG,SKIG,IGO,IGO,,https://en.wikipedia.org/wiki/Jaime_Ortiz_Betancur_Airport,,50,2023-07-28T21:45:15+00:00
348747,CO-0062,closed,"Calamar Airport",7.619698,-76.646633,146,SA,Colombia,CO,"Antioquía Department",CO-ANT,ANT,Chigorodó,0,,,,,,,,50,2023-07-28T21:42:29+00:00
41055,SK-256,small_airport,"Chivolo Airport",10.016667,-74.683333,560,SA,Colombia,CO,"Magdalena Department",CO-MAG,MAG,Chivolo,0,,,IVO,IVO,,,,50,2024-04-22T21:04:52+00:00
40851,SK-263,small_airport,"La Ceiba Airport",10.788056,-74.104444,130,SA,Colombia,CO,"Magdalena Department",CO-MAG,MAG,Ciénaga,0,,,,CGA,,,,50,2009-10-20T10:45:46+00:00
40853,SK-262,small_airport,"La Amalia Airport",10.860833,-74.145833,113,SA,Colombia,CO,"Magdalena Department",CO-MAG,MAG,Ciénaga,0,,,,AMA,,,,50,2009-10-20T10:45:46+00:00
40854,SK-266,small_airport,"La Fe Airport",10.854722,-74.171111,58,SA,Colombia,CO,"Magdalena Department",CO-MAG,MAG,Ciénaga,0,,,,LFE,,,,50,2009-10-20T10:45:46+00:00
40855,SK-264,small_airport,"La Cheka Airport",10.667778,-74.201667,85,SA,Colombia,CO,"Magdalena Department",CO-MAG,MAG,Ciénaga,0,,,,CIE,,,,50,2009-10-20T10:45:46+00:00
40856,SK-269,small_airport,"La Ye Airport",11.0025,-74.211667,51,SA,Colombia,CO,"Magdalena Department",CO-MAG,MAG,Ciénaga,0,,,,LAY,,,,50,2009-10-20T10:45:46+00:00
30831,SKCM,small_airport,"Cimitarra Airport",6.367484,-73.970658,740,SA,Colombia,CO,"Santander Department",CO-SAN,SAN,Cimitarra,0,SKCM,SKCM,CIM,CIM,,https://en.wikipedia.org/wiki/Cimitarra_Airport,,50,2024-05-30T22:44:38+00:00
40746,SK-185,small_airport,"Tamaca Airport",9.916667,-73.231389,348,SA,Colombia,CO,"César Department",CO-CES,CES,Codazzi,0,,,,COZ,,,,50,2009-10-20T10:45:39+00:00
40750,SK-178,small_airport,"Monteliban Airport",9.886389,-73.2425,356,SA,Colombia,CO,"César Department",CO-CES,CES,Codazzi,0,,,,MOC,,,,50,2009-10-20T10:45:38+00:00
40751,SK-174,small_airport,"Las Flores Airport",10.096608,-73.2337,399,SA,Colombia,CO,"César Department",CO-CES,CES,Codazzi,0,,,DZI,LFL,,,,50,2016-05-28T23:54:49+00:00
40753,SK-152,small_airport,"Casacara Cayta Airport",9.928056,-73.253056,321,SA,Colombia,CO,"César Department",CO-CES,CES,Codazzi,0,,,,CAG,,,,50,2009-10-20T10:45:36+00:00
40762,SK-180,small_airport,"Pororó Airport",9.9375,-73.273889,291,SA,Colombia,CO,"César Department",CO-CES,CES,Codazzi,0,,,,PRO,,,,50,2009-10-20T10:45:39+00:00
40763,SK-143,small_airport,"Ana María Airport",10.0375,-73.283611,331,SA,Colombia,CO,"César Department",CO-CES,CES,Codazzi,0,,,,ANN,,,,50,2009-10-20T10:45:36+00:00
40769,SK-167,small_airport,"La Esperanza Airport",9.907778,-73.3225,255,SA,Colombia,CO,"César Department",CO-CES,CES,Codazzi,0,,,,EPZ,,,,50,2009-10-20T10:45:37+00:00
40784,SK-166,small_airport,"La Dilia Airport",9.895,-73.408889,208,SA,Colombia,CO,"César Department",CO-CES,CES,Codazzi,0,,,,LAD,,,,50,2009-10-20T10:45:37+00:00
30842,SKCD,small_airport,"Mandinga Airport",5.072007,-76.676373,213,SA,Colombia,CO,"Chocó Department",CO-CHO,CHO,Condoto,0,SKCD,SKCD,COG,COG,,https://en.wikipedia.org/wiki/Mandinga_Airport,,50,2024-05-17T19:47:08+00:00
41065,SK-205,small_airport,"San Pablo Airport",9.058381,-75.782021,250,SA,Colombia,CO,"Córdoba Department",CO-COR,COR,Cotorra,0,,,,SNP,,,,50,2021-10-08T17:53:47+00:00
40911,SK-443,small_airport,"Tamarindo Airport",3.790278,-75.081111,1076,SA,Colombia,CO,"Tolima Department",CO-TOL,TOL,Coyaima,0,,,,CYA,,,,50,2009-10-20T10:46:00+00:00
6111,SKCN,small_airport,"Cravo Norte Airport",6.316404,-70.21137,341,SA,Colombia,CO,"Arauca Department",CO-ARA,ARA,"Cravo Norte",0,SKCN,SKCN,RAV,RAV,https://www.aerocivil.gov.co/aeropuertos/Pages/cravo-norte.aspx,https://en.wikipedia.org/wiki/Cravo_Norte_Airport,,50,2023-07-28T22:07:04+00:00
40690,SK-368,small_airport,"Cinera Airport",8.2,-72.5,233,SA,Colombia,CO,"Norte de Santander Department",CO-NSA,NSA,Cúcuta,0,,,,CRA,,,,50,2009-10-20T10:45:54+00:00
40697,SK-369,small_airport,"Petrolea Airport",8.497222,-72.596667,180,SA,Colombia,CO,"Norte de Santander Department",CO-NSA,NSA,Cúcuta,0,,,,PET,,,,50,2009-10-20T10:45:54+00:00
40727,SK-316,small_airport,"Las Delicias Airport",4.196389,-73.073056,599,SA,Colombia,CO,"Meta Department",CO-MET,MET,Cumaral,0,,,,CUA,,,,50,2009-10-20T10:45:51+00:00
40744,SK-309,small_airport,"La María Airport",4.241389,-73.217222,720,SA,Colombia,CO,"Meta Department",CO-MET,MET,Cumaral,0,,,,CMR,,,,50,2009-10-20T10:45:49+00:00
40755,SK-346,small_airport,"Santa Bárbara Airport",4.233889,-73.256111,771,SA,Colombia,CO,"Meta Department",CO-MET,MET,Cumaral,0,,,,CRL,,,,50,2009-10-20T10:45:53+00:00
40759,SK-353,small_airport,"Umbría Airport",4.190422,-73.261111,743,SA,Colombia,CO,"Meta Department",CO-MET,MET,Cumaral,0,,,,UMB,,,,50,2025-02-24T22:36:02+00:00
40569,SK-514,small_airport,"Cumaribo Airport",4.4483,-69.7807,550,SA,Colombia,CO,"Vichada Department",CO-VID,VID,Cumaribo,0,SKUM,,,PCE,,https://en.wikipedia.org/wiki/Cumaribo_Airport,,50,2024-05-18T22:58:21+00:00
41027,SK-059,small_airport,"Currillo Airport",4.666667,-72,495,SA,Colombia,CO,"Casanare Department",CO-CAS,CAS,Currillo,0,,,CUI,CUI,,,,50,2014-08-07T02:22:11+00:00
40988,SK-451,small_airport,"Darien Calima Airport",3.95,-76.516667,7417,SA,Colombia,CO,"Valle del Cauca Department",CO-VAC,VAC,Darien,0,,,,DAR,,,,50,2009-10-20T10:46:01+00:00
519298,SQIR,small_airport,"El Cairano Airport",10.712573,-75.264825,10,SA,Colombia,CO,"Atlántico Department",CO-ATL,ATL,"El Cairano",0,SQIR,,,,,,,50,2024-01-18T19:36:13+00:00
40803,SK-381,small_airport,"El Carmen Airport",6.740556,-73.554444,956,SA,Colombia,CO,"Santander Department",CO-SAN,SAN,"El Carmen",0,,,,ECC,,,,50,2009-10-20T10:45:55+00:00
40972,SK-456,small_airport,"Ingenio Providencia Airport",3.638333,-76.305,3307,SA,Colombia,CO,"Valle del Cauca Department",CO-VAC,VAC,"El Cerrito",0,,,,ELT,,,,50,2009-10-20T10:46:01+00:00
41006,SK-363,small_airport,"Los Mulatos Airport",2.65,-78.3,3,SA,Colombia,CO,"Nariño Department",CO-NAR,NAR,"El Charco",0,,,,LMN,,,,50,2009-10-20T10:45:54+00:00
41084,SKEH,small_airport,"El Charco Airport",2.44944444444,-78.0941666667,25,SA,Colombia,CO,"Nariño Department",CO-NAR,NAR,"El Charco",0,SKEH,SKEH,ECR,ECR,,,,50,2016-01-22T13:57:24+00:00
40847,SK-168,small_airport,"La Fe Airport",10.130278,-74.039444,339,SA,Colombia,CO,"César Department",CO-CES,CES,"El Copey",0,,,,ECU,,,,50,2009-10-20T10:45:38+00:00
40860,SK-147,small_airport,"Bethania Airport",10.116667,-74.425,426,SA,Colombia,CO,"César Department",CO-CES,CES,"El Copey",0,,,,CES,,,,50,2009-10-20T10:45:36+00:00
519297,SQED,small_airport,"El Delirio Airport",6.982348,-70.880857,427,SA,Colombia,CO,"Arauca Department",CO-ARA,ARA,"El Delirio",0,SQED,,,,,,,50,2024-04-22T21:24:34+00:00
40850,SK-270,small_airport,"Mayorca Airport",9.922778,-74.095,300,SA,Colombia,CO,"Magdalena Department",CO-MAG,MAG,"El Difícil",0,,,,ELF,,,,50,2009-10-20T10:45:46+00:00
41037,SK-002,small_airport,"El Encanto Airport",-1.7533333333299999,-73.20472222219999,420,SA,Colombia,CO,"Amazonas Department",CO-AMA,AMA,"El Encanto",0,,,ECO,ECO,,,,50,2012-08-18T10:26:06+00:00
40862,SK-039,small_airport,"El Espino Airport",6.48813,-72.504635,7123,SA,Colombia,CO,"Boyacá Department",CO-BOY,BOY,"El Espino",0,,,,EEB,,,,50,2023-07-28T23:27:02+00:00
342467,EEB,small_airport,"El Espino Airport",6.4884,-72.50388,7126,SA,Colombia,CO,"Boyacá Department",CO-BOY,BOY,"El Espino",0,,,,EEB,,,SQSY,50,2021-03-29T11:21:29+00:00
40884,SK-424,small_airport,"La Bastilla Airport",4.093333,-74.910278,1031,SA,Colombia,CO,"Tolima Department",CO-TOL,TOL,"El Guamo",0,,,,LAA,,,,50,2009-10-20T10:45:58+00:00
40889,SK-419,small_airport,"Guamo - Asta Airport",4,-74.95,1003,SA,Colombia,CO,"Tolima Department",CO-TOL,TOL,"El Guamo",0,,,,GMO,,,,50,2009-10-20T10:45:58+00:00
40817,SK-169,small_airport,"La Irlanda Airport",9.619722,-73.630833,141,SA,Colombia,CO,"César Department",CO-CES,CES,"El Paso",0,,,,LAI,,,,50,2009-10-20T10:45:38+00:00
40756,SK-380,small_airport,"Comuneros Airport",6.386667,-73.256389,5138,SA,Colombia,CO,"Santander Department",CO-SAN,SAN,"El Socorro",0,,,,ELS,,,,50,2009-10-20T10:45:55+00:00
40560,SK-517,small_airport,"El Tapón Airport",5.15,-69.183333,419,SA,Colombia,CO,"Vichada Department",CO-VID,VID,"El Tapón",0,,,,ETA,,,,50,2009-10-20T10:46:05+00:00
6103,SKBN,small_airport,"Buenavista Airport",10.8879,-72.9004,850,SA,Colombia,CO,"La Guajira Department",CO-LAG,LAG,Fonseca,0,SKBN,,,BVA,,https://en.wikipedia.org/wiki/Buenavista_Air_Base,,50,2024-05-18T22:58:33+00:00
40966,SK-006,small_airport,"Guillermo Gaviria Correa Airport",6.730556,-76.146389,5555,NA,Colombia,CO,"Antioquía Department",CO-ANT,ANT,Frontino,0,SKFE,,,FRO,,https://es.wikipedia.org/wiki/Aeropuerto_Guillermo_Gaviria_Correa,"El Plateado Airport",50,2024-11-18T15:01:47+00:00
40792,SK-276,small_airport,"Caño Blanco Airport",3.29,-73.463333,803,SA,Colombia,CO,"Meta Department",CO-MET,MET,"Fuente De Oro",0,,,,FTE,,,,50,2009-10-20T10:45:47+00:00
40806,SK-292,small_airport,"Guanayas Airport",3.353889,-73.577778,832,SA,Colombia,CO,"Meta Department",CO-MET,MET,"Fuente De Oro",0,,,,FEO,,,,50,2009-10-20T10:45:48+00:00
40809,SK-306,small_airport,"La Luna Airport",3.449167,-73.584444,954,SA,Colombia,CO,"Meta Department",CO-MET,MET,"Fuente De Oro",0,,,,FOO,,,,50,2009-10-20T10:45:49+00:00
40813,SK-321,small_airport,"Los Sabanales Airport",3.463341,-73.602582,960,SA,Colombia,CO,"Meta Department",CO-MET,MET,"Fuente De Oro",0,,,,FUT,,,Gaviotas,50,2022-03-08T20:41:17+00:00
40815,SK-294,small_airport,"Halcones Airport",3.373056,-73.613333,852,SA,Colombia,CO,"Meta Department",CO-MET,MET,"Fuente De Oro",0,,,,FUR,,,,50,2009-10-20T10:45:48+00:00
40821,SK-341,small_airport,"San Luis Airport",3.501944,-73.669722,1039,SA,Colombia,CO,"Meta Department",CO-MET,MET,"Fuente De Oro",0,,,,FUL,,,,50,2009-10-20T10:45:52+00:00
40826,SK-323,small_airport,"Majagual Airport",3.390278,-73.696389,951,SA,Colombia,CO,"Meta Department",CO-MET,MET,"Fuente De Oro",0,,,,FUO,,,,50,2009-10-20T10:45:51+00:00
40830,SK-299,small_airport,"La Candela Airport",3.421389,-73.725833,1004,SA,Colombia,CO,"Meta Department",CO-MET,MET,"Fuente De Oro",0,,,,FNO,,,,50,2009-10-20T10:45:48+00:00
31104,SKFU,small_airport,"Fundación Airport",10.5333,-74.2,150,SA,Colombia,CO,"Magdalena Department",CO-MAG,MAG,Fundación,0,SKFU,,FDA,FDA,,,,50,2009-10-20T10:46:12+00:00
40848,SK-255,small_airport,"Algarrobo Airport",10.235833,-74.053611,379,SA,Colombia,CO,"Magdalena Department",CO-MAG,MAG,Fundación,0,,,,FUN,,,,50,2009-10-20T10:45:45+00:00
40824,SK-159,small_airport,"Fabal-Coal Airport",8.247222,-73.693611,191,SA,Colombia,CO,"César Department",CO-CES,CES,Gamarra,0,,,,AFC,,,,50,2009-10-20T10:45:37+00:00
40825,SK-161,small_airport,"Germania Airport",8.333333,-73.695,225,SA,Colombia,CO,"César Department",CO-CES,CES,Gamarra,0,,,,GER,,,,50,2009-10-20T10:45:37+00:00
40828,SK-172,small_airport,"La Nena Cayta Airport",8.206111,-73.700833,167,SA,Colombia,CO,"César Department",CO-CES,CES,Gamarra,0,,,,GAM,,,,50,2009-10-20T10:45:38+00:00
40942,SK-242,small_airport,"San Francisco Airport",2.305,-75.644444,2249,SA,Colombia,CO,"Huila Department",CO-HUI,HUI,Garzón,0,,,,SFC,,,,50,2009-10-20T10:45:44+00:00
40832,SK-283,small_airport,"El Progreso Airport",3.477891,-73.730831,944,SA,Colombia,CO,"Meta Department",CO-MET,MET,Granada,0,,,,GAN,,,,50,2024-04-25T23:02:59+00:00
40834,SK-324,small_airport,"Malvinas Airport",3.423889,-73.769167,1087,SA,Colombia,CO,"Meta Department",CO-MET,MET,Granada,0,,,,GRN,,,,50,2009-10-20T10:45:51+00:00
41058,SK-236,small_airport,"Guacamayas Airport",2.283333,-74.95,1500,SA,Colombia,CO,"Huila Department",CO-HUI,HUI,Guacamayas,0,,,GCA,GCA,,,,50,2013-07-19T17:55:57+00:00
40973,SK-466,small_airport,"San Gerardo Airport",3.633333,-76.316667,3286,SA,Colombia,CO,"Valle del Cauca Department",CO-VAC,VAC,Guacari,0,,,,SXG,,,,50,2009-10-20T10:46:01+00:00
40974,SK-458,small_airport,"La Base-Fumivalle Airport",3.779444,-76.324722,3205,SA,Colombia,CO,"Valle del Cauca Department",CO-VAC,VAC,Guacari,0,,,,GUR,,,,50,2009-10-20T10:46:01+00:00
40981,SK-457,small_airport,"La .Estrella Airport",3.763056,-76.349722,3150,SA,Colombia,CO,"Valle del Cauca Department",CO-VAC,VAC,Guacari,0,,,,GUE,,,,50,2009-10-20T10:46:01+00:00
40857,SK-258,small_airport,"El Carmen Airport",9.170278,-74.211944,88,SA,Colombia,CO,"Magdalena Department",CO-MAG,MAG,Guamal,0,,,,ECM,,,,50,2009-10-20T10:45:45+00:00
41050,SK-261,small_airport,"Guamal Airport",9.15,-74.233333,65,SA,Colombia,CO,"Magdalena Department",CO-MAG,MAG,Guamal,0,,,GAA,GAA,,,,50,2024-04-23T14:23:43+00:00
41021,SK-293,small_airport,"Guerima Airport",3.633333,-71.166667,606,SA,Colombia,CO,"Meta Department",CO-MET,MET,Guerima,0,,,,GMC,,,,50,2025-02-24T22:25:48+00:00
40556,SK-031,small_airport,"Hacienda Veracruz Airport",10.573707,-75.064791,44,SA,Colombia,CO,"Atlántico Department",CO-ATL,ATL,"Hacienda Veracruz",0,,,,,,,,50,2009-10-20T10:45:28+00:00
40626,SK-088,small_airport,"La Chapa Airport",5.933333,-71.45,534,SA,Colombia,CO,"Casanare Department",CO-CAS,CAS,"Hato Coro",0,,,,CHP,,,,50,2009-10-20T10:45:32+00:00
31651,SKHC,small_airport,"Hato Corozal Airport",6.153311,-71.761969,820,NA,Colombia,CO,"Casanare Department",CO-CAS,CAS,"Hato Corozal",0,SKHC,SKHC,HTZ,HTZ,https://www.aerocivil.gov.co/aeropuertos/Pages/hato-corozal.aspx,https://en.wikipedia.org/wiki/Hato_Corozal_Airport,,50,2023-01-13T14:46:28+00:00
40614,SK-064,small_airport,"El Cairo Airport",6.064722,-71.204444,460,SA,Colombia,CO,"Casanare Department",CO-CAS,CAS,"Hato Corozal",0,,,,HCO,,,,50,2009-10-20T10:45:32+00:00
40618,SK-065,small_airport,"El Danubio Airport",6.261111,-71.224722,480,SA,Colombia,CO,"Casanare Department",CO-CAS,CAS,"Hato Corozal",0,,,,HTC,,,,50,2009-10-20T10:45:32+00:00
40624,SK-081,small_airport,"Hato La Aurora Airport",6.033056,-71.381944,512,SA,Colombia,CO,"Casanare Department",CO-CAS,CAS,"Hato Corozal",0,,,,HOZ,,,,50,2009-10-20T10:45:32+00:00
40910,SK-410,small_airport,"El Escobal Airport",4.395556,-75.070833,2479,SA,Colombia,CO,"Tolima Department",CO-TOL,TOL,Ibague,0,,,,EET,,,,50,2009-10-20T10:45:57+00:00
40912,SK-435,small_airport,"Potrerito Airport",4.329444,-75.081944,2376,SA,Colombia,CO,"Tolima Department",CO-TOL,TOL,Ibague,0,,,,PPT,,,,50,2009-10-20T10:45:59+00:00
40913,SK-421,small_airport,"Hato De Opia Airport",4.421667,-75.083056,2601,SA,Colombia,CO,"Tolima Department",CO-TOL,TOL,Ibague,0,,,,HOP,,,,50,2009-10-20T10:45:58+00:00
40915,SK-436,small_airport,"Rancho Grande Airport",4.442222,-75.114722,2866,SA,Colombia,CO,"Tolima Department",CO-TOL,TOL,Ibague,0,,,,RGR,,,,50,2009-10-20T10:45:59+00:00
40917,SK-407,small_airport,"Cruz Verde Airport",4.41,-75.14,3039,SA,Colombia,CO,"Tolima Department",CO-TOL,TOL,Ibague,0,SKCE,,,CVT,,https://en.wikipedia.org/wiki/Cruz_Verde_Airport,,50,2024-06-07T09:48:29+00:00
40920,SK-418,small_airport,"Guadalaja Airport",4.366944,-75.159444,2913,SA,Colombia,CO,"Tolima Department",CO-TOL,TOL,Ibague,0,,,,GUT,,,,50,2009-10-20T10:45:58+00:00
41004,SK-367,small_airport,"Santa Bárbara Airport",2.445825,-77.981753,10,SA,Colombia,CO,"Nariño Department",CO-NAR,NAR,Iscuandé,0,,,ISD,SBN,,,,50,2016-07-10T08:51:20+00:00
40947,SK-009,small_airport,"La Providencia Airport",7.165278,-75.725278,5611,SA,Colombia,CO,"Antioquía Department",CO-ANT,ANT,"Ituango 2",0,,,,ITG,,,,50,2009-10-20T10:45:28+00:00
40905,SK-423,small_airport,"Jabalcón Airport",3.842222,-75.033611,1034,SA,Colombia,CO,"Tolima Department",CO-TOL,TOL,Jabalcón,0,,,,JAB,,,,50,2009-10-20T10:45:58+00:00
40987,SK-470,small_airport,"Udelva Airport",3.233889,-76.503889,3143,SA,Colombia,CO,"Valle del Cauca Department",CO-VAC,VAC,Jamundi,0,,,,JDI,,,,50,2009-10-20T10:46:01+00:00
41075,SK-008,small_airport,"Jurado Airport",6.516667,-76.6,2184,SA,Colombia,CO,"Antioquía Department",CO-ANT,ANT,Jurado,0,,,,JUO,,,,50,2023-07-28T21:49:35+00:00
41001,SK-188,small_airport,"Alfemar Airport",7.008728,-77.667303,23,SA,Colombia,CO,"Chocó Department",CO-CHO,CHO,Jurado,0,,,,ALR,,,,50,2024-05-17T19:41:24+00:00
41002,SK-190,small_airport,"Cabo Marzo Airport",6.881389,-77.680556,87,SA,Colombia,CO,"Chocó Department",CO-CHO,CHO,Jurado,0,,,,CAM,,,,50,2009-10-20T10:45:39+00:00
41003,SKJU,small_airport,"Juradó Airport",7.07181,-77.727117,33,NA,Colombia,CO,"Chocó Department",CO-CHO,CHO,Juradó,0,SKJU,SKJU,JUO,JUR,,https://en.wikipedia.org/wiki/Jurad%C3%B3_Airport,,50,2023-01-13T18:22:17+00:00
40831,SK-146,small_airport,"Bella Cruz - San Juan Airport",8.621196,-73.726693,141,SA,Colombia,CO,"César Department",CO-CES,CES,"La Gloria",0,,,,LGL,,,,50,2025-01-10T11:33:21+00:00
40833,SK-175,small_airport,"Las Tapias Airport",8.686667,-73.765278,116,SA,Colombia,CO,"César Department",CO-CES,CES,"La Gloria",0,,,,LTA,,,,50,2009-10-20T10:45:38+00:00
40801,SK-170,small_airport,"La Jagua De Ibir Airport",9.620556,-73.536389,157,SA,Colombia,CO,"César Department",CO-CES,CES,"La Jagua De Ibir",0,,,,LJC,,,,50,2009-10-20T10:45:38+00:00
40764,SK-153,small_airport,"Cerro De Piedra Airport",9.562222,-73.293889,572,SA,Colombia,CO,"César Department",CO-CES,CES,"La Jagua De Ibirico",0,,,,LJD,,,,50,2009-10-20T10:45:36+00:00
40777,SK-179,small_airport,"Nueva Granada Airport",9.578889,-73.373056,301,SA,Colombia,CO,"César Department",CO-CES,CES,"La Jagua De Ibirico",0,,,,LJI,,,,50,2009-10-20T10:45:38+00:00
40789,SK-158,small_airport,"Elborrego Airport",9.587778,-73.455278,229,SA,Colombia,CO,"César Department",CO-CES,CES,"La Loma",0,,,,LJB,,,,50,2009-10-20T10:45:37+00:00
40796,SK-149,small_airport,"Calenturitas Airport",9.652073,-73.495134,195,SA,Colombia,CO,"César Department",CO-CES,CES,"La Loma",0,SKAL,,,LLO,,https://en.wikipedia.org/wiki/Calenturitas_Airport,,50,2024-04-22T21:09:48+00:00
40940,SK-041,small_airport,"La Palestina Airport",5.030278,-75.616667,5042,SA,Colombia,CO,"Caldas Department",CO-CAL,CAL,"La Palestina",0,,,,LAE,,,,50,2009-10-20T10:45:30+00:00
40562,SK-515,small_airport,"El Cimarrón Airport",5.939722,-69.264444,359,SA,Colombia,CO,"Vichada Department",CO-VID,VID,"La Primavera",0,,,,LPR,,,,50,2009-10-20T10:46:05+00:00
40568,SK-516,small_airport,"El Gavilán Airport",5.226667,-69.737222,381,SA,Colombia,CO,"Vichada Department",CO-VID,VID,"La Primavera",0,,,,LPG,,,,50,2009-10-20T10:46:05+00:00
40571,SK-520,small_airport,"La Jaula Airport",5.307778,-69.831944,380,SA,Colombia,CO,"Vichada Department",CO-VID,VID,"La Primavera",0,,,,LJV,,,,50,2009-10-20T10:46:06+00:00
40573,SK-525,small_airport,"Rancho Alegre Airport",5.322778,-69.950556,387,SA,Colombia,CO,"Vichada Department",CO-VID,VID,"La Primavera",0,,,,LPV,,,,50,2009-10-20T10:46:06+00:00
40596,SKIM,small_airport,"La Primavera Airport",5.4776,-70.4212,390,SA,Colombia,CO,"Vichada Department",CO-VID,VID,"La Primavera",0,SKIM,SKIM,LPE,PIM,,https://en.wikipedia.org/wiki/La_Primavera_Airport,,50,2024-05-16T20:27:55+00:00
40952,SK-373,small_airport,"Las Gaviotas Airport",4.428056,-75.796944,3831,SA,Colombia,CO,"Quindio Department",CO-QUI,QUI,"La Tebaida",0,,,,LTB,,,,50,2009-10-20T10:45:55+00:00
40962,SK-461,small_airport,"La Mesa Airport",4.563889,-76.023889,2977,SA,Colombia,CO,"Valle del Cauca Department",CO-VAC,VAC,"La Victoria",0,,,,LVC,,,,50,2009-10-20T10:46:01+00:00
41019,SK-523,small_airport,"Las Gaviotas Airport",4.583333,-70.833333,600,SA,Colombia,CO,"Vichada Department",CO-VID,VID,"Las Gaviotas",0,,,,,,,,50,2015-02-21T02:12:37+00:00
41056,SK-371,small_airport,"Leguizamo Airport",-0.166505,-74.7667,628,SA,Colombia,CO,"Putumayo Department",CO-PUT,PUT,Leguizamo,0,,,,LGZ,,,,50,2009-10-20T10:45:55+00:00
6125,SKIO,small_airport,"Cicuco Airport",9.26878,-74.6523,65,SA,Colombia,CO,"Bolívar Department",CO-BOL,BOL,Limón,0,SKIO,,,CIO,,https://en.wikipedia.org/wiki/Cicuco_Airport,,50,2024-04-22T21:22:38+00:00
40950,SK-206,small_airport,"San Pablo Airport",9.062778,-75.7825,18,SA,Colombia,CO,"Córdoba Department",CO-COR,COR,Loriga,0,,,,SNP,,,,50,2009-10-20T10:45:41+00:00
41010,SK-223,small_airport,"Macanal Airport",2.80898,-67.62189,327,SA,Colombia,CO,"Guainía Department",CO-GUA,GUA,Macanal,0,,,NAD,NAD,,,,50,2022-01-15T01:55:59+00:00
41005,SK-364,small_airport,"Maguí Payán Airport",1.746389,-78.165,316,SA,Colombia,CO,"Nariño Department",CO-NAR,NAR,"Maguí Payán",0,,,,MGP,,,,50,2009-10-20T10:45:54+00:00
6135,SKMJ,small_airport,"Maicao Airport",11.3899,-72.239197,160,SA,Colombia,CO,"La Guajira Department",CO-LAG,LAG,Maicao,0,SKMJ,,,MCJ,,https://en.wikipedia.org/wiki/Maicao_Airport,,50,2024-05-18T22:59:37+00:00
32312,SKLA,small_airport,"Málaga Regional Airport",6.70472,-72.7303,6710,SA,Colombia,CO,"Santander Department",CO-SAN,SAN,Málaga,0,SKLA,,,MLG,,https://en.wikipedia.org/wiki/Jer%C3%B3nimo_de_Aguayo_Airport,,50,2024-05-18T22:59:26+00:00
40555,SK-030,small_airport,"El Esfuerzo Airport",10.4552,-74.9623,44,SA,Colombia,CO,"Atlántico Department",CO-ATL,ATL,Manatí,0,,,,EEA,,,,50,2016-03-11T23:02:13+00:00
1644,SKSI,small_airport,"Santiago I Airport",4.73214,-72.323196,573,SA,Colombia,CO,"Casanare Department",CO-CAS,CAS,Maní,0,SKSI,,,,,,SK52,50,2009-10-20T10:52:50+00:00
32313,SKMN,small_airport,"Casanare Airport",4.83333,-72.2667,600,SA,Colombia,CO,"Casanare Department",CO-CAS,CAS,Maní,0,SKMN,,,MNI,,,,50,2009-10-20T10:46:17+00:00
40662,SK-061,small_airport,"Dumacita Airport",4.481667,-72.04,492,SA,Colombia,CO,"Casanare Department",CO-CAS,CAS,Maní,0,,,,MIN,,,,50,2009-10-20T10:45:30+00:00
40667,SK-076,small_airport,"Estero Airport",4.676389,-72.123611,524,SA,Colombia,CO,"Casanare Department",CO-CAS,CAS,Maní,0,,,,MAI,,,,50,2009-10-20T10:45:32+00:00
40673,SK-102,small_airport,"Los Milagros Airport",4.798056,-72.234167,564,SA,Colombia,CO,"Casanare Department",CO-CAS,CAS,Maní,0,,,,LOM,,,,50,2009-10-20T10:45:34+00:00
40675,SK-135,small_airport,"Villa Andrea Airport",4.792778,-72.234444,567,SA,Colombia,CO,"Casanare Department",CO-CAS,CAS,Maní,0,,,,MNY,,,,50,2009-10-20T10:45:35+00:00
40682,SK-094,small_airport,"La Gloria Airport",5.006389,-72.356111,650,SA,Colombia,CO,"Casanare Department",CO-CAS,CAS,Maní,0,,,,MNO,,,,50,2009-10-20T10:45:32+00:00
40683,SK-132,small_airport,"Tío Bayo Airport",4.903052,-72.368127,608,NA,Colombia,CO,"Casanare Department",CO-CAS,CAS,Maní,0,,,,MYN,,,,50,2024-10-21T12:34:31+00:00
40927,SK-037,small_airport,"San Pablo - Incora Airport",10.047222,-75.265278,52,SA,Colombia,CO,"Bolívar Department",CO-BOL,BOL,"María La Baja",0,,,,SPO,,,,50,2009-10-20T10:45:30+00:00
40932,SK-033,small_airport,"Honduras Br Airport",9.972222,-75.374167,20,SA,Colombia,CO,"Bolívar Department",CO-BOL,BOL,"María La Baja",0,,,,HOB,,,,50,2009-10-20T10:45:30+00:00
41081,SK-140,small_airport,"Lopez de Micay Airport",2.841177,-77.237214,111,SA,Colombia,CO,"Cauca Department",CO-CAU,CAU,Micay,0,,,LMX,LMX,,,"El Trapiche",50,2024-11-19T23:42:32+00:00
31896,SKMF,small_airport,"Miraflores Airport",1.35,-71.9444,730,SA,Colombia,CO,"Guaviare Department",CO-GUV,GUV,Miraflores,0,SKMF,SKMF,MFS,MFS,,https://en.wikipedia.org/wiki/Miraflores_Airport,,50,2024-05-16T20:29:15+00:00
40659,SK-227,small_airport,"Lagos Del Dorado Airport",1.21,-71.955,654,SA,Colombia,CO,"Guaviare Department",CO-GUV,GUV,Miraflores,0,,,,MRF,,,,50,2009-10-20T10:45:43+00:00
40679,SK-225,small_airport,"Barranquillita Airport",1.546667,-72.325833,742,SA,Colombia,CO,"Guaviare Department",CO-GUV,GUV,Miraflores,0,,,,BOL,,,,50,2009-10-20T10:45:43+00:00
40702,SK-230,small_airport,"Tres Ríos Airport",1.206389,-72.7325,730,SA,Colombia,CO,"Guaviare Department",CO-GUV,GUV,Miraflores,0,,,,TRR,,,,50,2009-10-20T10:45:43+00:00
40978,SK-137,small_airport,"Ingenio Incauca Airport",3.268889,-76.333889,3252,SA,Colombia,CO,"Cauca Department",CO-CAU,CAU,Miranda,0,,,,MDA,,,,50,2009-10-20T10:45:35+00:00
41016,SK-003,small_airport,"Miriti Parana Airport",-0.886017,-70.983446,409,SA,Colombia,CO,"Amazonas Department",CO-AMA,AMA,Mirití-Paraná,0,,,MIX,MIX,,,,50,2024-04-22T13:46:24+00:00
40561,SK-478,small_airport,"Ibacaba Airport",0.970556,-69.230556,413,SA,Colombia,CO,"Vaupés Department",CO-VAU,VAU,Mitu,0,,,,MIC,,,,50,2009-10-20T10:46:03+00:00
40563,SK-500,small_airport,"Teresita Airport",0.738056,-69.471389,414,SA,Colombia,CO,"Vaupés Department",CO-VAU,VAU,Mitu,0,,,,MTS,,,,50,2009-10-20T10:46:04+00:00
40564,SK-508,small_airport,"Yapima Airport",1.0825,-69.491389,489,SA,Colombia,CO,"Vaupés Department",CO-VAU,VAU,Mitu,0,,,,YAP,,,,50,2009-10-20T10:46:05+00:00
40565,SK-506,small_airport,"Wainambi Airport",0.866667,-69.617222,461,SA,Colombia,CO,"Vaupés Department",CO-VAU,VAU,Mitu,0,,,,MWA,,,,50,2009-10-20T10:46:05+00:00
40567,SK-488,small_airport,"Piracuara Airport",0.670278,-69.651389,457,SA,Colombia,CO,"Vaupés Department",CO-VAU,VAU,Mitu,0,,,,MPI,,,,50,2009-10-20T10:46:03+00:00
40572,SK-479,small_airport,"Kamanaos Airport",1.726111,-69.845278,578,SA,Colombia,CO,"Vaupés Department",CO-VAU,VAU,Mitu,0,,,,MKA,,,,50,2009-10-20T10:46:03+00:00
40574,SK-502,small_airport,"Villa Fátima Airport",0.974444,-69.956944,583,SA,Colombia,CO,"Vaupés Department",CO-VAU,VAU,Mitu,0,,,,MVI,,,,50,2009-10-20T10:46:04+00:00
40575,SK-495,small_airport,"Santa Lucía Airport",1.382852,-70.006889,758,SA,Colombia,CO,"Vaupés Department",CO-VAU,VAU,Mitu,0,SQSW,,,MSI,,,,50,2024-04-22T14:02:08+00:00
40577,SK-507,small_airport,"Wasay Airport",1.660833,-70.019444,567,SA,Colombia,CO,"Vaupés Department",CO-VAU,VAU,Mitu,0,,,,MWY,,,,50,2009-10-20T10:46:05+00:00
40578,SK-480,small_airport,"Los Angele Airport",0.576389,-70.129722,601,SA,Colombia,CO,"Vaupés Department",CO-VAU,VAU,Mitu,0,,,,MVU,,,,50,2009-10-20T10:46:03+00:00
40579,SK-498,small_airport,"Tapurucuara Airport",1.473056,-70.162778,621,SA,Colombia,CO,"Vaupés Department",CO-VAU,VAU,Mitu,0,,,,MUR,,,,50,2009-10-20T10:46:04+00:00
40580,SK-501,small_airport,"Tiquie Airport",0.234167,-70.168889,518,SA,Colombia,CO,"Vaupés Department",CO-VAU,VAU,Mitu,0,,,,MTI,,,,50,2009-10-20T10:46:04+00:00
40581,SK-472,small_airport,"Belén De Inambú Airport",0.470833,-70.184722,567,SA,Colombia,CO,"Vaupés Department",CO-VAU,VAU,Mitu,0,,,,MIB,,,,50,2009-10-20T10:46:03+00:00
40583,SK-505,small_airport,"Wacaricuara Airport",0.2,-70.225,577,SA,Colombia,CO,"Vaupés Department",CO-VAU,VAU,Mitu,0,,,,MIT,,,,50,2009-10-20T10:46:05+00:00
40585,SK-490,small_airport,"San Gerardo Airport",0.769722,-70.284722,580,SA,Colombia,CO,"Vaupés Department",CO-VAU,VAU,Mitu,0,,,,MGO,,,,50,2009-10-20T10:46:03+00:00
40587,SK-493,small_airport,"San Pablo Airport",0.783056,-70.322778,589,SA,Colombia,CO,"Vaupés Department",CO-VAU,VAU,Mitu,0,,,,MSN,,,,50,2009-10-20T10:46:04+00:00
40588,CO-0487,closed,"Piedra Ñi Airport",0.108611,-70.326944,583,SA,Colombia,CO,"Vaupés Department",CO-VAU,VAU,Mitu,0,,,,,,,,50,2020-10-16T16:40:55+00:00
40589,SK-491,small_airport,"San Luis De Paca Airport",0.874444,-70.346389,635,SA,Colombia,CO,"Vaupés Department",CO-VAU,VAU,Mitu,0,,,,MSP,,,,50,2009-10-20T10:46:03+00:00
40590,SK-509,small_airport,"Yapu Airport",0.621667,-70.351667,610,SA,Colombia,CO,"Vaupés Department",CO-VAU,VAU,Mitu,0,SKYG,,,MYA,,,,50,2016-01-22T17:31:16+00:00
40591,SK-485,small_airport,"Pacu Airport",1.630833,-70.363889,605,SA,Colombia,CO,"Vaupés Department",CO-VAU,VAU,Mitu,0,,,,MPU,,,,50,2009-10-20T10:46:03+00:00
40592,SK-496,small_airport,"Santa Rita Airport",1.652778,-70.409722,608,SA,Colombia,CO,"Vaupés Department",CO-VAU,VAU,Mitu,0,,,,MSR,,,,50,2009-10-20T10:46:04+00:00
40594,SK-477,small_airport,"Cano Coló Airport",0.365,-70.443333,696,SA,Colombia,CO,"Vaupés Department",CO-VAU,VAU,Mitu,0,,,,MOL,,,,50,2009-10-20T10:46:03+00:00
40597,SK-492,small_airport,"San Miguel Airport",0.003889,-70.497222,424,SA,Colombia,CO,"Vaupés Department",CO-VAU,VAU,Mitu,0,,,,MGU,,,,50,2009-10-20T10:46:04+00:00
40598,SK-497,small_airport,"Sonaña Airport",0.130833,-70.579167,560,SA,Colombia,CO,"Vaupés Department",CO-VAU,VAU,Mitu,0,,,,MSO,,,,50,2009-10-20T10:46:04+00:00
40602,SK-486,small_airport,"Papunagu Airport",1.907222,-70.761944,513,SA,Colombia,CO,"Vaupés Department",CO-VAU,VAU,Mitu,0,,,,MTC,,,,50,2009-10-20T10:46:03+00:00
40603,SK-473,small_airport,"Bocoa Querari Airport",1.5975,-70.799444,626,SA,Colombia,CO,"Vaupés Department",CO-VAU,VAU,Mitu,0,,,,MBQ,,,,50,2009-10-20T10:46:03+00:00
40609,SK-476,small_airport,"Cananari Airport",0.545,-70.928611,645,SA,Colombia,CO,"Vaupés Department",CO-VAU,VAU,Mitu,0,,,,MCI,,,,50,2009-10-20T10:46:03+00:00
40611,SK-474,small_airport,"Buenos Aires Airport",0.020278,-71.0075,518,SA,Colombia,CO,"Vaupés Department",CO-VAU,VAU,Mitu,0,,,,MTN,,,,50,2009-10-20T10:46:03+00:00
40621,SK-503,small_airport,"Villa Gladys Airport",0.260556,-71.356389,549,SA,Colombia,CO,"Vaupés Department",CO-VAU,VAU,Mitu,0,,,,MVA,,,,50,2009-10-20T10:46:04+00:00
40657,SK-475,small_airport,"Cachiporro Airport",0.554167,-71.926389,557,SA,Colombia,CO,"Vaupés Department",CO-VAU,VAU,Mitu,0,,,,MCP,,,,50,2009-10-20T10:46:03+00:00
317268,CO-0055,small_airport,"Mondo Nuevo Airport",8.3909,-75.7911,108,SA,Colombia,CO,"Córdoba Department",CO-COR,COR,"Mondo Nuevo",0,,,,,,,,50,2016-03-12T11:46:38+00:00
41013,SK-481,small_airport,"Monfort Airport",0.633333,-69.75,630,SA,Colombia,CO,"Vaupés Department",CO-VAU,VAU,Monfort,0,,,MFB,MFB,,,,50,2015-03-03T23:26:56+00:00
6136,SKML,small_airport,"Montelibano Airport",7.97174,-75.4325,160,SA,Colombia,CO,"Córdoba Department",CO-COR,COR,Montelíbano,0,SKML,SKML,MTB,MTB,,https://en.wikipedia.org/wiki/Montel%C3%ADbano_Airport,,50,2024-05-21T16:36:15+00:00
41032,SK-109,small_airport,"Monterrey Airport",4.906926,-72.894809,1500,SA,Colombia,CO,"Casanare Department",CO-CAS,CAS,Monterrey,0,,,MOY,MOY,,,,50,2019-04-28T22:00:16+00:00
40605,SK-228,small_airport,"Morichal Papanagu Airport",2,-70.883333,612,SA,Colombia,CO,"Guaviare Department",CO-GUV,GUV,Morichal,0,,,,MCG,,,,50,2009-10-20T10:45:43+00:00
41014,SK-482,small_airport,"Morichal Airport",1.75,-69.916667,552,SA,Colombia,CO,"Vaupés Department",CO-VAU,VAU,Morichal,0,,,MHF,MHF,,,,50,2015-03-05T22:27:19+00:00
41086,SK-365,small_airport,"Mosquera Airport",2.64955,-78.3361,50,SA,Colombia,CO,"Nariño Department",CO-NAR,NAR,Mosquera,0,,,MQR,MQR,,,,50,2019-04-28T15:09:19+00:00
41076,SK-012,small_airport,"Mulatos Airport",8.64019,-76.71884,20,SA,Colombia,CO,"Antioquía Department",CO-ANT,ANT,Mulatos,0,,,ULS,ULS,,,,50,2024-05-25T01:04:55+00:00
40995,SK-013,small_airport,"Murindo Airport",6.981667,-76.813889,27,SA,Colombia,CO,"Antioquía Department",CO-ANT,ANT,Murindo,0,,,,MRI,,,,50,2009-10-20T10:45:28+00:00
40996,SK-025,small_airport,"Vigía Del Fuerte Airport",6.583333,-76.883333,72,SA,Colombia,CO,"Antioquía Department",CO-ANT,ANT,Murindo,0,,,,VDF,,,,50,2009-10-20T10:45:28+00:00
40986,SK-014,small_airport,"Mutata Airport",7.250316,-76.444173,328,SA,Colombia,CO,"Antioquía Department",CO-ANT,ANT,Mutata,0,,,,MTA,,,"AG3246, FR38055",50,2021-04-14T13:02:39+00:00
505191,CO-0077,small_airport,"Pavorrandocito North Airport",7.395196,-76.587925,125,SA,Colombia,CO,"Antioquía Department",CO-ANT,ANT,Mutatá,0,,,,,,,,50,2023-07-28T21:52:57+00:00
505192,CO-0078,small_airport,"La Gabriela Airport",7.44249,-76.59209,121,SA,Colombia,CO,"Antioquía Department",CO-ANT,ANT,Mutatá,0,,,,,,,,50,2023-07-28T21:55:10+00:00
40914,SK-438,small_airport,"San Germán Airport",3.650833,-75.100278,1081,SA,Colombia,CO,"Tolima Department",CO-TOL,TOL,Natagaima,0,,,,SGT,,,,50,2009-10-20T10:45:59+00:00
32010,SKNC,small_airport,"Necocli Airport",8.454429,-76.779326,19,SA,Colombia,CO,"Antioquía Department",CO-ANT,ANT,Necocli,0,SKNC,SKNC,NCI,NCI,,https://en.wikipedia.org/wiki/Necocl%C3%AD_Airport,,50,2024-05-20T20:10:01+00:00
40992,SK-015,small_airport,"Nueva Fortuna Airport",8.616667,-76.666667,230,SA,Colombia,CO,"Antioquía Department",CO-ANT,ANT,"Nueva Fortuna",0,,,,NFA,,,,50,2009-10-20T10:45:28+00:00
40656,SK-083,small_airport,"La Barquereña Airport",5.396111,-71.911667,594,SA,Colombia,CO,"Casanare Department",CO-CAS,CAS,Nunchia,0,,,,LAB,,,,50,2009-10-20T10:45:32+00:00
40660,SK-052,small_airport,"Bizerta Airport",5.4225,-71.993611,637,SA,Colombia,CO,"Casanare Department",CO-CAS,CAS,Nunchia,0,,,,BIZ,,,,50,2009-10-20T10:45:30+00:00
40661,SK-087,small_airport,"La Ceiba Airport",5.445833,-72.003889,948,SA,Colombia,CO,"Casanare Department",CO-CAS,CAS,Nunchia,0,,,,NUA,,,,50,2009-10-20T10:45:32+00:00
40664,SK-111,small_airport,"Palma Rosa Airport",5.566667,-72.06,733,SA,Colombia,CO,"Casanare Department",CO-CAS,CAS,Nunchia,0,,,,NUT,,,,50,2009-10-20T10:45:34+00:00
40665,SK-051,small_airport,"Banco Airport",5.463056,-72.063056,689,SA,Colombia,CO,"Casanare Department",CO-CAS,CAS,Nunchia,0,,,,BAN,,,,50,2009-10-20T10:45:30+00:00
40666,SK-066,small_airport,"El Deshecho Airport",5.621944,-72.067778,840,SA,Colombia,CO,"Casanare Department",CO-CAS,CAS,Nunchia,0,,,,NUN,,,,50,2009-10-20T10:45:32+00:00
40668,SK-095,small_airport,"La Nevera Airport",5.512222,-72.129167,766,SA,Colombia,CO,"Casanare Department",CO-CAS,CAS,Nunchia,0,,,,NIA,,,,50,2009-10-20T10:45:32+00:00
40670,SK-097,small_airport,"La Reforma Airport",5.429444,-72.163611,707,SA,Colombia,CO,"Casanare Department",CO-CAS,CAS,Nunchia,0,,,,NCC,,,,50,2009-10-20T10:45:33+00:00
41028,SK-110,small_airport,"Nunchia Airport",5.65,-72.2,1849,SA,Colombia,CO,"Casanare Department",CO-CAS,CAS,Nunchia,0,,,NUH,NUH,,,,50,2024-05-05T08:25:18+00:00
40958,SK-453,small_airport,"Hacienda La Elvira Airport",4.618056,-75.921667,3307,SA,Colombia,CO,"Valle del Cauca Department",CO-VAC,VAC,Obando,0,,,,HEV,,,,50,2009-10-20T10:46:01+00:00
32315,SKOR,small_airport,"Orito Airport",0.669444,-76.88,1132,SA,Colombia,CO,"Putumayo Department",CO-PUT,PUT,Orito,0,SKOR,,,ORI,,https://en.wikipedia.org/wiki/Orito_Airport,,50,2024-05-18T22:59:50+00:00
40625,SK-079,small_airport,"Guanapalo Airport",5.180556,-71.428889,475,SA,Colombia,CO,"Casanare Department",CO-CAS,CAS,Orocue,0,,,,ORO,,,,50,2009-10-20T10:45:32+00:00
40628,SK-053,small_airport,"Buena Vista Airport",4.836111,-71.502222,457,SA,Colombia,CO,"Casanare Department",CO-CAS,CAS,Orocue,0,,,,OCU,,,,50,2009-10-20T10:45:30+00:00
40629,SK-062,small_airport,"El Boral Airport",4.734722,-71.503333,427,SA,Colombia,CO,"Casanare Department",CO-CAS,CAS,Orocue,0,,,,ORR,,,,50,2009-10-20T10:45:30+00:00
40630,SK-126,small_airport,"Sardinas Airport",4.983611,-71.513333,478,SA,Colombia,CO,"Casanare Department",CO-CAS,CAS,Orocue,0,,,,ORS,,,,50,2009-10-20T10:45:34+00:00
40632,SK-100,small_airport,"Lasguabin Airport",4.710833,-71.549444,446,SA,Colombia,CO,"Casanare Department",CO-CAS,CAS,Orocue,0,,,,LAS,,,,50,2009-10-20T10:45:34+00:00
40633,SK-072,small_airport,"El Viejo Carmen Airport",4.8875,-71.568333,476,SA,Colombia,CO,"Casanare Department",CO-CAS,CAS,Orocue,0,,,,OCE,,,,50,2009-10-20T10:45:32+00:00
40636,SK-080,small_airport,"Guarilaque Airport",4.89,-71.592222,6375,SA,Colombia,CO,"Casanare Department",CO-CAS,CAS,Orocue,0,,,,ORA,,,,50,2009-10-20T10:45:32+00:00
40637,SK-085,small_airport,"La Candelaria Airport",5.111111,-71.628056,509,SA,Colombia,CO,"Casanare Department",CO-CAS,CAS,Orocue,0,,,,ORX,,,,50,2009-10-20T10:45:32+00:00
40638,SK-121,small_airport,"San Pablo Airport",4.785833,-71.630833,489,SA,Colombia,CO,"Casanare Department",CO-CAS,CAS,Orocue,0,,,,OOR,,,,50,2009-10-20T10:45:34+00:00
40639,SK-091,small_airport,"La Culebra Airport",4.9025,-71.634722,478,SA,Colombia,CO,"Casanare Department",CO-CAS,CAS,Orocue,0,,,,ORJ,,,,50,2009-10-20T10:45:32+00:00
40640,SK-049,small_airport,"Altamira Airport",4.758611,-71.638611,467,SA,Colombia,CO,"Casanare Department",CO-CAS,CAS,Orocue,0,,,,ALT,,,,50,2009-10-20T10:45:30+00:00
40641,SK-096,small_airport,"La Pista Airport",4.827778,-71.6675,477,SA,Colombia,CO,"Casanare Department",CO-CAS,CAS,Orocue,0,,,,LAL,,,,50,2009-10-20T10:45:32+00:00
40642,SK-106,small_airport,"Mararey Airport",4.828056,-71.680833,482,SA,Colombia,CO,"Casanare Department",CO-CAS,CAS,Orocue,0,,,,MAR,,,,50,2009-10-20T10:45:34+00:00
40643,SK-063,small_airport,"El Caimán Airport",4.856389,-71.683889,485,SA,Colombia,CO,"Casanare Department",CO-CAS,CAS,Orocue,0,,,,ORE,,,,50,2009-10-20T10:45:30+00:00
40645,SK-067,small_airport,"El Medano Airport",4.799722,-71.7125,481,SA,Colombia,CO,"Casanare Department",CO-CAS,CAS,Orocue,0,,,,ORU,,,,50,2009-10-20T10:45:32+00:00
40651,SK-122,small_airport,"Santa Ana Airport",5.087778,-71.789722,540,SA,Colombia,CO,"Casanare Department",CO-CAS,CAS,Orocue,0,,,,SAA,,,,50,2009-10-20T10:45:34+00:00
40658,SK-071,small_airport,"El Rodeo Airport",4.753889,-71.931667,491,SA,Colombia,CO,"Casanare Department",CO-CAS,CAS,Orocue,0,,,,ORM,,,,50,2009-10-20T10:45:32+00:00
40866,SK-018,small_airport,"Remedios C Airport",6.933333,-74.716667,2523,SA,Colombia,CO,"Antioquía Department",CO-ANT,ANT,Otu,0,,,,OTU,,,,50,2009-10-20T10:45:28+00:00
40615,SK-484,small_airport,"Pacoa Airport",0.066667,-71.208333,549,SA,Colombia,CO,"Vaupés Department",CO-VAU,VAU,Pacoa,0,,,,PCA,,,,50,2009-10-20T10:46:03+00:00
40975,SK-141,small_airport,"San Jacinto Airport",3.185833,-76.326111,3261,SA,Colombia,CO,"Cauca Department",CO-CAU,CAU,Padilla,0,,,,SJP,,,,50,2009-10-20T10:45:36+00:00
40822,SK-148,small_airport,"Buenos Aires Airport",9.02,-73.6725,224,SA,Colombia,CO,"César Department",CO-CES,CES,Pailitas,0,,,,BNP,,,,50,2009-10-20T10:45:36+00:00
40928,SK-233,small_airport,"El Juncal Airport",2.846944,-75.313056,1524,SA,Colombia,CO,"Huila Department",CO-HUI,HUI,Palermo,0,,,,EJU,,,,50,2009-10-20T10:45:43+00:00
40933,SK-237,small_airport,"Guamito Airport",2.914167,-75.396667,1773,SA,Colombia,CO,"Huila Department",CO-HUI,HUI,Palermo,0,,,,GUN,,,,50,2009-10-20T10:45:44+00:00
40936,SK-243,small_airport,"San Luis Airport",2.929722,-75.42,1808,SA,Colombia,CO,"Huila Department",CO-HUI,HUI,Palermo,0,,,,PMO,,,,50,2009-10-20T10:45:44+00:00
40971,SK-454,small_airport,"Ingenio Manuelita Airport",3.598889,-76.303611,3310,SA,Colombia,CO,"Valle del Cauca Department",CO-VAC,VAC,Palmira,0,,,,PMM,,,,50,2009-10-20T10:46:01+00:00
41036,SK-115,small_airport,"Paratebueno Airport",4.401295,-73.188381,820,SA,Colombia,CO,"Casanare Department",CO-CAS,CAS,Paratebueno,0,,,EUO,EUO,,,,50,2025-02-24T22:40:43+00:00
40732,SK-215,small_airport,"La Ponderosa Airport",4.287778,-73.133889,665,SA,Colombia,CO,"Cundinamarca Department",CO-CUN,CUN,Paratebueno,0,,,,PBR,,,,50,2009-10-20T10:45:41+00:00
40735,SK-219,small_airport,"Primero De Mayo Airport",4.334722,-73.143889,685,SA,Colombia,CO,"Cundinamarca Department",CO-CUN,CUN,Paratebueno,0,,,,PRI,,,,50,2009-10-20T10:45:43+00:00
40739,SK-214,small_airport,"La Paz Airport",4.297778,-73.189167,729,SA,Colombia,CO,"Cundinamarca Department",CO-CUN,CUN,Paratebueno,0,,,,LAZ,,,,50,2009-10-20T10:45:41+00:00
40757,SK-211,small_airport,"La Aurora Airport",4.304444,-73.256667,808,SA,Colombia,CO,"Cundinamarca Department",CO-CUN,CUN,Paratebueno,0,,,,PRB,,,,50,2009-10-20T10:45:41+00:00
40997,SK-136,small_airport,"El Guayabx Airport",2.091111,-76.955,2980,SA,Colombia,CO,"Cauca Department",CO-CAU,CAU,Patia,0,,,,EGY,,,,50,2009-10-20T10:45:35+00:00
41085,SK-366,small_airport,"Payán Airport",1.8,-78.166667,97,SA,Colombia,CO,"Nariño Department",CO-NAR,NAR,Payán,0,,,PYN,PYN,,,,50,2024-04-22T20:46:27+00:00
40644,SK-119,small_airport,"San Fernando Airport",5.663502,-71.681594,584,NA,Colombia,CO,"Casanare Department",CO-CAS,CAS,"Paz de Arif",0,,,,SAN,,,,50,2023-11-28T20:24:17+00:00
40601,SK-134,small_airport,"Venecia De Guamas Airport",5.691944,-70.739722,389,SA,Colombia,CO,"Casanare Department",CO-CAS,CAS,"Paz De Ariporo",0,,,,PZI,,,,50,2009-10-20T10:45:35+00:00
40607,SK-098,small_airport,"La Venganza Airport",6.022778,-70.8975,412,SA,Colombia,CO,"Casanare Department",CO-CAS,CAS,"Paz De Ariporo",0,,,,PDE,,,,50,2009-10-20T10:45:33+00:00
40610,SK-086,small_airport,"La Carpeta Airport",5.958611,-70.94,423,SA,Colombia,CO,"Casanare Department",CO-CAS,CAS,"Paz De Ariporo",0,,,,LAP,,,,50,2009-10-20T10:45:32+00:00
40617,SK-056,small_airport,"Chaparrito Airport",5.56,-71.217222,456,SA,Colombia,CO,"Casanare Department",CO-CAS,CAS,"Paz De Ariporo",0,,,,PZR,,,,50,2009-10-20T10:45:30+00:00
40631,SK-089,small_airport,"La Colonia Airport",5.763889,-71.531389,556,SA,Colombia,CO,"Casanare Department",CO-CAS,CAS,"Paz De Ariporo",0,,,,PDR,,,,50,2009-10-20T10:45:32+00:00
40634,SK-054,small_airport,"Caño Garza Airport",5.591667,-71.589444,544,SA,Colombia,CO,"Casanare Department",CO-CAS,CAS,"Paz de Ariporo",0,SKAA,,,PAZ,,https://en.wikipedia.org/wiki/Ca%C3%B1o_Garza_Airport,,50,2024-05-05T08:07:21+00:00
40918,SK-042,small_airport,"Pensilvania Airport",5.369722,-75.140833,7626,SA,Colombia,CO,"Caldas Department",CO-CAL,CAL,Pensilvania,0,,,,PEN,,,,50,2009-10-20T10:45:30+00:00
40956,SK-375,small_airport,"El Diamante Airport",4.823611,-75.845278,3891,SA,Colombia,CO,"Risaralda Department",CO-RIS,RIS,Pereira,0,,,,PEP,,,,50,2009-10-20T10:45:55+00:00
40858,SK-268,small_airport,"La Palestina Airport",10.609722,-74.298333,64,SA,Colombia,CO,"Magdalena Department",CO-MAG,MAG,Pivijay,0,,,,PIV,,,,50,2009-10-20T10:45:46+00:00
41066,SK-434,small_airport,"Planadas Airport",3.197051,-75.642042,3931,SA,Colombia,CO,"Tolima Department",CO-TOL,TOL,Planadas,0,,,PLA,PLA,,,,50,2024-04-25T22:42:16+00:00
41063,CO-0492,closed,"Planeta Rica Airport",8.398853,-75.577379,280,SA,Colombia,CO,"Córdoba Department",CO-COR,COR,"Planeta Rica",0,,,,,,,"PLC, PLC, SK-204",50,2025-02-25T14:49:56+00:00
32165,SKPL,small_airport,"Plato Airport",9.8,-74.7833,69,SA,Colombia,CO,"Magdalena Department",CO-MAG,MAG,Plato,0,SKPL,SKPL,PLT,PLT,,https://en.wikipedia.org/wiki/Plato_Airport,,50,2024-05-16T20:30:06+00:00
40861,SK-267,small_airport,"La Gaviota Airport",9.644444,-74.425,187,SA,Colombia,CO,"Magdalena Department",CO-MAG,MAG,Plato,0,,,,LEB,,,,50,2009-10-20T10:45:46+00:00
40865,SK-257,small_airport,"Corral Nuevo Airport",9.693611,-74.645833,124,SA,Colombia,CO,"Magdalena Department",CO-MAG,MAG,Plato,0,,,,CRN,,,,50,2009-10-20T10:45:45+00:00
40922,SK-240,small_airport,"Polonia Airport",3.266667,-75.168056,1285,SA,Colombia,CO,"Huila Department",CO-HUI,HUI,Polonia,0,,,,POL,,,,50,2009-10-20T10:45:44+00:00
41026,SK-116,small_airport,"Pore Airport",5.733333,-71.983333,975,SA,Colombia,CO,"Casanare Department",CO-CAS,CAS,Pore,0,,,PRE,POR,,,,50,2016-01-08T23:09:27+00:00
6145,SKPB,small_airport,"Puerto Bolívar Airport",12.2215,-71.9848,90,SA,Colombia,CO,"La Guajira Department",CO-LAG,LAG,Portete,0,SKPB,,,PBO,,https://en.wikipedia.org/wiki/Puerto_Bol%C3%ADvar_Airport,,50,2009-10-20T10:46:19+00:00
40970,SK-448,small_airport,"Castilla Central Airport",3.361667,-76.283056,3304,SA,Colombia,CO,"Valle del Cauca Department",CO-VAC,VAC,Pradera,0,,,,CST,,,,50,2009-10-20T10:46:01+00:00
40959,SK-428,small_airport,"Las Garzas Airport",3.751111,-75.9475,13119,SA,Colombia,CO,"Tolima Department",CO-TOL,TOL,Prado,0,,,,LGA,,,,50,2009-10-20T10:45:58+00:00
40648,SK-333,small_airport,"Puerto Alvira Cano Jabón Airport",2.902778,-71.749444,532,SA,Colombia,CO,"Meta Department",CO-MET,MET,"Puerto Alvira",0,,,,PCJ,,,,50,2022-03-04T16:24:03+00:00
6153,SKPR,small_airport,"Puerto Berrio Airport",6.46034,-74.4105,445,SA,Colombia,CO,"Antioquía Department",CO-ANT,ANT,"Puerto Berrio",0,SKPR,SKPR,PBE,PBE,,https://en.wikipedia.org/wiki/Morela_Airport,,50,2024-05-16T20:30:44+00:00
40558,SK-519,small_airport,"Jibici Airport",4.883889,-68.356389,356,SA,Colombia,CO,"Vichada Department",CO-VID,VID,"Puerto Carreño",0,,,,PRR,,,,50,2009-10-20T10:46:05+00:00
40559,SK-524,small_airport,"Pinoquia Airport",6.1525,-68.817778,234,SA,Colombia,CO,"Vichada Department",CO-VID,VID,"Puerto Carreño",0,,,,PNQ,,,,50,2009-10-20T10:46:06+00:00
40584,SK-527,small_airport,"San José De Ocune Airport",4.082222,-70.253889,560,SA,Colombia,CO,"Vichada Department",CO-VID,VID,"Puerto Carreño",0,,,,PRE,,,,50,2009-10-20T10:46:06+00:00
40586,SK-518,small_airport,"Guerima Airport",3.629996,-70.323028,471,SA,Colombia,CO,"Vichada Department",CO-VID,VID,"Puerto Carreño",0,SKUV,,GMC,GRM,,,,50,2024-05-25T00:12:26+00:00
40599,SK-522,small_airport,"La Victoria Airport",3.828056,-70.589167,438,SA,Colombia,CO,"Vichada Department",CO-VID,VID,"Puerto Carreño",0,,,,PTC,,,,50,2009-10-20T10:46:06+00:00
32316,SKPG,small_airport,"Puerto Gaitan Airport",4.30444,-72.0844,510,SA,Colombia,CO,"Casanare Department",CO-CAS,CAS,"Puerto Gaitan",0,SKPG,,,,,https://en.wikipedia.org/wiki/Puerto_Gait%C3%A1n_Airport,,50,2024-05-18T23:00:07+00:00
40623,SK-310,small_airport,"La Plata Airport",3.488056,-71.375556,635,SA,Colombia,CO,"Meta Department",CO-MET,MET,"Puerto Gaitán",0,,,,PGP,,,,50,2009-10-20T10:45:50+00:00
40635,SK-286,small_airport,"El Rodeo Airport",4.415,-71.590278,624,SA,Colombia,CO,"Meta Department",CO-MET,MET,"Puerto Gaitán",0,,,,PGO,,,,50,2009-10-20T10:45:48+00:00
40646,SK-295,small_airport,"Hato La Esperanza Airport",4.2375,-71.718056,666,SA,Colombia,CO,"Meta Department",CO-MET,MET,"Puerto Gaitán",0,,,,HLE,,,,50,2009-10-20T10:45:48+00:00
40654,SK-318,small_airport,"Las Malvinas Airport",3.770833,-71.823889,709,SA,Colombia,CO,"Meta Department",CO-MET,MET,"Puerto Gaitán",0,,,,LML,,,,50,2009-10-20T10:45:51+00:00
40663,SK-338,small_airport,"Sabaneta Airport",3.931667,-72.043333,683,SA,Colombia,CO,"Meta Department",CO-MET,MET,"Puerto Gaitán",0,,,,PGN,,,,50,2009-10-20T10:45:52+00:00
40945,SK-202,small_airport,"La Esperanza Airport",7.868889,-75.675556,261,SA,Colombia,CO,"Córdoba Department",CO-COR,COR,"Puerto Libertador",0,,,,PLK,,,,50,2009-10-20T10:45:41+00:00
40772,SK-334,small_airport,"Puerto Lleras Airport",3.289302,-73.379286,805,SA,Colombia,CO,"Meta Department",CO-MET,MET,"Puerto Lleras",0,,,,PLL,,,,50,2022-03-08T18:07:03+00:00
40793,SK-289,small_airport,"Gaviotas Airport",3.365833,-73.4675,805,SA,Colombia,CO,"Meta Department",CO-MET,MET,"Puerto Lleras",0,,,,PUL,,,,50,2009-10-20T10:45:48+00:00
353407,CO-0067,small_airport,"La Esperanza Airport",3.31229,-73.36607,804,SA,Colombia,CO,"Meta Department",CO-MET,MET,"Puerto Lleras",0,,,,,,,,50,2022-03-08T18:06:42+00:00
30816,SKCI,small_airport,"Carimagua Airport",4.56417,-71.3364,700,SA,Colombia,CO,"Meta Department",CO-MET,MET,"Puerto López",0,SKCI,SKCI,CCO,CCO,,https://en.wikipedia.org/wiki/Carimagua_Airport,,50,2024-05-16T20:28:30+00:00
40678,SK-328,small_airport,"Mundo Nuevo Airport",4.330278,-72.32,594,SA,Colombia,CO,"Meta Department",CO-MET,MET,"Puerto López",0,,,,MUN,,,,50,2009-10-20T10:45:52+00:00
40689,SK-358,small_airport,"Yátaros De Meluá Airport",3.793889,-72.477778,580,SA,Colombia,CO,"Meta Department",CO-MET,MET,"Puerto López",0,,,,PTZ,,,,50,2009-10-20T10:45:53+00:00
40691,SK-273,small_airport,"Bello Horizonte Airport",4.291667,-72.504167,578,SA,Colombia,CO,"Meta Department",CO-MET,MET,"Puerto López",0,,,,PLE,,,,50,2009-10-20T10:45:46+00:00
40714,SK-314,small_airport,"Lajitas Airport",4.156728,-72.907257,726,SA,Colombia,CO,"Meta Department",CO-MET,MET,"Puerto López",0,,,,LAJ,,,,50,2025-02-24T22:31:03+00:00
40717,SK-337,small_airport,"Rancho Nare Airport",3.854167,-72.973611,774,SA,Colombia,CO,"Meta Department",CO-MET,MET,"Puerto López",0,,,,RCN,,,,50,2009-10-20T10:45:52+00:00
40722,SK-322,small_airport,"Los Venados Airport",4.0675,-73.005,611,SA,Colombia,CO,"Meta Department",CO-MET,MET,"Puerto López",0,,,,LVE,,,,50,2009-10-20T10:45:51+00:00
40729,SK-331,small_airport,"Palmasola Airport",4.127222,-73.076667,616,SA,Colombia,CO,"Meta Department",CO-MET,MET,"Puerto López",0,,,,PLO,,,,50,2009-10-20T10:45:52+00:00
40730,SK-352,small_airport,"Tobasia Airport",4.078611,-73.079444,604,SA,Colombia,CO,"Meta Department",CO-MET,MET,"Puerto López",0,,,,PLS,,,,50,2009-10-20T10:45:53+00:00
40731,SK-285,small_airport,"El Rinconcito Airport",3.927222,-73.081111,615,SA,Colombia,CO,"Meta Department",CO-MET,MET,"Puerto López",0,,,,PPZ,,,,50,2009-10-20T10:45:47+00:00
40733,SK-312,small_airport,"La Reforma Airport",4.062778,-73.139167,649,SA,Colombia,CO,"Meta Department",CO-MET,MET,"Puerto López",0,,,,PTE,,,,50,2009-10-20T10:45:50+00:00
40734,SK-319,small_airport,"Los Bálticos Airport",4.131389,-73.140833,661,SA,Colombia,CO,"Meta Department",CO-MET,MET,"Puerto López",0,,,,LOB,,,,50,2009-10-20T10:45:51+00:00
40738,SK-329,small_airport,"Natalia Airport",4.069722,-73.180556,674,SA,Colombia,CO,"Meta Department",CO-MET,MET,"Puerto López",0,,,,PRL,,,,50,2009-10-20T10:45:52+00:00
40749,SK-339,small_airport,"San Isidro Airport",4.127222,-73.238889,738,SA,Colombia,CO,"Meta Department",CO-MET,MET,"Puerto López",0,,,,PLD,,,,50,2009-10-20T10:45:52+00:00
41045,SK-160,small_airport,"Gamarra Airport",8.20199,-73.7653,130,NA,Colombia,CO,"César Department",CO-CES,CES,"Puerto Mosquito",0,,,GRA,GRA,,,,50,2024-04-06T19:35:32+00:00
41060,SK-045,small_airport,"Puerto Rico Airport",1.916667,-75.166667,980,SA,Colombia,CO,"Caquetá Department",CO-CAQ,CAQ,"Puerto Rico",0,,,PCC,PCC,,https://es.wikipedia.org/wiki/Aeropuerto_de_Puerto_Rico,,50,2015-10-06T23:37:02+00:00
40742,SK-335,small_airport,"Puerto Rico Airport",2.939576,-73.199167,709,SA,Colombia,CO,"Meta Department",CO-MET,MET,"Puerto Rico",0,,,,PUE,,,,50,2022-03-08T18:02:38+00:00
41020,SK-029,small_airport,"Rondón Airport",6.284479,-71.097732,447,SA,Colombia,CO,"Arauca Department",CO-ARA,ARA,"Puerto Rondón",0,,,,RDN,,,,50,2016-03-11T21:10:00+00:00
40864,SK-016,small_airport,"Puerto Perales Airport",5.991776,-74.57009,460,SA,Colombia,CO,"Antioquía Department",CO-ANT,ANT,"Puerto Triunfo",0,,,,PFO,,,,50,2017-04-24T02:22:54+00:00
337006,CO-0058,small_airport,"Airport Hacienda Nápoles",5.922102,-74.728632,775,SA,Colombia,CO,"Antioquía Department",CO-ANT,ANT,"Puerto Triunfo",0,SQFQ,,,,http://www.haciendanapoles.com/,https://en.wikipedia.org/wiki/Hacienda_N%C3%A1poles,,50,2024-04-23T14:21:29+00:00
40807,SK-383,small_airport,"El Porvenir Airport",7.310278,-73.578611,499,SA,Colombia,CO,"Santander Department",CO-SAN,SAN,"Puerto Wilches",0,,,,PWC,,,,50,2009-10-20T10:45:56+00:00
40836,SK-388,small_airport,"Los Gemelos Dorados Airport",7.363333,-73.771944,228,SA,Colombia,CO,"Santander Department",CO-SAN,SAN,"Puerto Wilches",0,,,,PTW,,,,50,2009-10-20T10:45:56+00:00
40837,SK-386,small_airport,"La Ponderosa Airport",7.274167,-73.8225,304,SA,Colombia,CO,"Santander Department",CO-SAN,SAN,"Puerto Wilches",0,,,,LPS,,,,50,2009-10-20T10:45:56+00:00
40842,SK-390,small_airport,"Puerto Wlches Airport",7.35,-73.9,204,SA,Colombia,CO,"Santander Department",CO-SAN,SAN,"Puerto Wilches",0,,,,PWT,,,,50,2009-10-20T10:45:56+00:00
40994,SK-378,small_airport,"Buenos Aires Airport",7.463889,-76.746111,63,SA,Colombia,CO,"Santander Department",CO-SAN,SAN,"Puerto Wilches",0,,,,BNO,,,,50,2009-10-20T10:45:55+00:00
40895,SK-426,small_airport,"La María Airport",3.882443,-74.986899,993,SA,Colombia,CO,"Tolima Department",CO-TOL,TOL,Purificacion,0,,,,LMT,,,,50,2021-08-11T13:29:48+00:00
317261,CO-0054,small_airport,"Ríohacha Highway Strip",11.4988,-72.9892,30,SA,Colombia,CO,"Guaviare Department",CO-GUV,GUV,Ríohacha,0,,,,,,,,50,2016-03-11T23:36:36+00:00
40711,SK-249,small_airport,"Cotoprix Airport",11.223611,-72.836111,192,SA,Colombia,CO,"La Guajira Department",CO-LAG,LAG,Riohacha,0,,,,CTP,,,,50,2009-10-20T10:45:45+00:00
355177,CO-0074,small_airport,"Rocoso Airstrip",1.766012,-71.290267,,SA,Colombia,CO,"Guaviare Department",CO-GUV,GUV,Rocoso,0,,,,,,,SXOS,50,2024-04-22T21:26:45+00:00
355178,CO-0075,small_airport,"Papunahua River 3 Airstrip",1.726449,-71.22671,,SA,Colombia,CO,"Guaviare Department",CO-GUV,GUV,Rocoso,0,,,,,,,,50,2024-04-22T20:54:08+00:00
40965,SK-469,small_airport,"Tierra Blanca Airport",4.413056,-76.123333,2990,SA,Colombia,CO,"Valle del Cauca Department",CO-VAC,VAC,Roldanillo,0,,,,TIB,,,,50,2009-10-20T10:46:01+00:00
41048,SK-284,small_airport,"El Recreo Airport",2,-74.133333,900,SA,Colombia,CO,"Meta Department",CO-MET,MET,"Ruperto Polania",0,,,ELJ,ELJ,,,,50,2014-09-12T17:59:37+00:00
40812,SK-389,small_airport,"Mata De Plátano Airport",7.530556,-73.601667,224,SA,Colombia,CO,"Santander Department",CO-SAN,SAN,"Sabana De",0,,,,MAT,,,,50,2009-10-20T10:45:56+00:00
32342,SKRU,small_airport,"Las Cruces Airport",7.38322,-73.505402,440,SA,Colombia,CO,"Santander Department",CO-SAN,SAN,"Sabana de Torres",0,SKRU,SKRU,SNT,,,https://en.wikipedia.org/wiki/Las_Cruces_Airport_(Colombia),,50,2024-05-26T17:52:31+00:00
40706,SK-123,small_airport,"Santa Clara Airport",4.415833,-72.773889,559,SA,Colombia,CO,"Casanare Department",CO-CAS,CAS,Sabanalarga,0,,,,SAT,,,,50,2009-10-20T10:45:34+00:00
40724,SK-118,small_airport,"Sabanalarga Airport",4.816667,-73.033333,1188,SA,Colombia,CO,"Casanare Department",CO-CAS,CAS,Sabanalarga,0,,,,SLC,,,,50,2009-10-20T10:45:34+00:00
40888,SK-437,small_airport,"San Agustín Airport",3.945278,-74.940556,982,SA,Colombia,CO,"Tolima Department",CO-TOL,TOL,Saldana,0,,,,SDA,,,,50,2009-10-20T10:45:59+00:00
40893,SK-431,small_airport,"Los Mangos Airport",3.915833,-74.981944,1001,SA,Colombia,CO,"Tolima Department",CO-TOL,TOL,Saldaña,0,,,,LMS,,,,50,2009-10-20T10:45:59+00:00
40900,SK-416,small_airport,"Facón Saldaña Airport",3.916667,-75.016667,1014,SA,Colombia,CO,"Tolima Department",CO-TOL,TOL,Saldaña,0,,,,SSL,,,,50,2009-10-20T10:45:58+00:00
40787,SK-163,small_airport,"Irho Airport",7.734444,-73.434167,295,SA,Colombia,CO,"César Department",CO-CES,CES,"San Alberto",0,,,,IRH,,,,50,2009-10-20T10:45:37+00:00
